"city","city_ascii","city_alt","state_id","state_name","county_fips","county_name","county_fips_all","county_name_all","lat","lng","population","population_proper","density","source","military","incorporated","cdp","township","timezone","ranking","zips","id","age_median","age_under_10","age_10_to_19","age_20s","age_30s","age_40s","age_50s","age_60s","age_70s","age_over_80","age_over_65","age_18_to_24","age_over_18","male","female","married","divorced","never_married","widowed","family_size","family_dual_income","income_household_median","income_household_under_5","income_household_5_to_10","income_household_10_to_15","income_household_15_to_20","income_household_20_to_25","income_household_25_to_35","income_household_35_to_50","income_household_50_to_75","income_household_75_to_100","income_household_100_to_150","income_household_150_over","income_household_six_figure","income_individual_median","home_ownership","housing_units","home_value","rent_median","rent_burden","education_less_highschool","education_highschool","education_some_college","education_bachelors","education_graduate","education_college_or_above","education_stem_degree","labor_force_participation","unemployment_rate","race_white","race_black","race_asian","race_native","race_pacific","race_other","race_multiple","hispanic","disabled","poverty","limited_english","commute_time","health_uninsured","veteran","cbsa_fips","cbsa_name","cbsa_metro","csa_fips","csa_name"
"Brockway Landing","Brockway Landing","","CT","Connecticut","09130","Lower Connecticut River Valley","09130","Lower Connecticut River Valley","41.3887","-72.3884","","","56.8","point","FALSE","FALSE","FALSE","FALSE","America/New_York","4","06371","1840044438","","","","","","","","","","","","","","","","","","","","","","","","","","","","","","","","","","","","","","","","","","","","","","","","","","","","","","","","","","","","","","","","35980","Norwich-New London, CT","TRUE","278","Hartford-East Hartford, CT"
"Whipup","Whipup","","UT","Utah","49041","Sevier","49041","Sevier","38.6916","-111.3941","","","0.0","point","FALSE","FALSE","FALSE","FALSE","America/Denver","5","84654","1840114652","","","","","","","","","","","","","","","","","","","","","","","","","","","","","","","","","","","","","","","","","","","","","","","","","","","","","","","","","","","","","","","","","","FALSE","",""
"Loring Colony","Loring Colony","","MT","Montana","30071","Phillips","30071","Phillips","48.7891","-107.9687","0","0","0.2","shape","FALSE","FALSE","TRUE","FALSE","America/Denver","3","59537","1840148545","","","","","","","","","","","","","","","","","","","","","","","","","","","","","","","","","","","","","0","","","","","","","","","","","","","","","","","","","","","","","","","","","","","FALSE","",""
"Sleeping Buffalo","Sleeping Buffalo","","MT","Montana","30071","Phillips","30071","Phillips","48.4830","-107.5319","0","0","2.0","shape","FALSE","FALSE","TRUE","FALSE","America/Denver","3","59261","1840148547","","","","","","","","","","","","","","","","","","","","","","","","","","","","","","","","","","","","","0","","","","","","","","","","","","","","","","","","","","","","","","","","","","","FALSE","",""
"East Malta Colony","East Malta Colony","","MT","Montana","30071","Phillips","30071","Phillips","48.3488","-107.6081","0","0","2.6","shape","FALSE","FALSE","TRUE","FALSE","America/Denver","3","59538","1840148548","","","","","","","","","","","","","","","","","","","","","","","","","","","","","","","","","","","","","0","","","","","","","","","","","","","","","","","","","","","","","","","","","","","FALSE","",""
"Woodlawn Grove","Woodlawn Grove","","IN","Indiana","18117","Orange","18117","Orange","38.5781","-86.4580","","","48.0","point","FALSE","FALSE","FALSE","FALSE","America/Indiana/Indianapolis","4","47454","1840056061","","","","","","","","","","","","","","","","","","","","","","","","","","","","","","","","","","","","","","","","","","","","","","","","","","","","","","","","","","","","","","","","","","FALSE","",""
"Springwater Colony","Springwater Colony","","MT","Montana","30107","Wheatland","30107","Wheatland","46.4569","-109.7532","0","0","2.0","shape","FALSE","FALSE","TRUE","FALSE","America/Denver","3","59036","1840148549","","","","","","","","","","","","","","","","","","","","","","","","","","","","","","","","","","","","","0","","","","","","","","","","","","","","","","","","","","","","","","","","","13740","Billings, MT","TRUE","",""
"Cline","Cline","","MT","Montana","30111","Yellowstone","30111","Yellowstone","45.8822","-108.4090","","","38.2","point","FALSE","FALSE","FALSE","FALSE","America/Denver","4","59105","1840077937","","","","","","","","","","","","","","","","","","","","","","","","","","","","","","","","","","","","","","","","","","","","","","","","","","","","","","","","","","","","","","","","13740","Billings, MT","TRUE","",""
"Topinabee","Topinabee","","MI","Michigan","26031","Cheboygan","26031","Cheboygan","45.4839","-84.5953","","","151.9","point","FALSE","FALSE","FALSE","FALSE","America/Detroit","4","49791","1840031688","","","","","","","","","","","","","","","","","","","","","","","","","","","","","","","","","","","","","","","","","","","","","","","","","","","","","","","","","","","","","","","","","","FALSE","",""
"Toquin","Toquin","","MI","Michigan","26159","Van Buren","26159","Van Buren","42.2575","-86.2231","","","33.0","point","FALSE","FALSE","FALSE","FALSE","America/Detroit","4","49057","1840127167","","","","","","","","","","","","","","","","","","","","","","","","","","","","","","","","","","","","","","","","","","","","","","","","","","","","","","","","","","","","","","","","","","FALSE","",""
"Benton Center","Benton Center","","MI","Michigan","26021","Berrien","26021","Berrien","42.1239","-86.3786","","","73.9","point","FALSE","FALSE","FALSE","FALSE","America/Detroit","4","49022","1840127297","","","","","","","","","","","","","","","","","","","","","","","","","","","","","","","","","","","","","","","","","","","","","","","","","","","","","","","","","","","","","","","","35660","Niles, MI","TRUE","515","South Bend-Elkhart-Mishawaka, IN-MI"
"Barbeau","Barbeau","","MI","Michigan","26033","Chippewa","26033","Chippewa","46.2886","-84.2811","","","19.7","point","FALSE","FALSE","FALSE","FALSE","America/Detroit","4","49710","1840127290","","","","","","","","","","","","","","","","","","","","","","","","","","","","","","","","","","","","","","","","","","","","","","","","","","","","","","","","","","","","","","","","42300","Sault Ste. Marie, MI","FALSE","",""
"Balsam","Balsam","","MI","Michigan","26071","Iron","26071","Iron","46.2077","-88.3810","","","3.8","point","FALSE","FALSE","FALSE","FALSE","America/Menominee","5","49920","1840127289","","","","","","","","","","","","","","","","","","","","","","","","","","","","","","","","","","","","","","","","","","","","","","","","","","","","","","","","","","","","","","","","27020","Iron Mountain, MI-WI","FALSE","361","Marinette-Iron Mountain, WI-MI"
"Beach Grove","Beach Grove","","MI","Michigan","26109","Menominee","26109","Menominee","45.2994","-87.4376","","","21.7","point","FALSE","FALSE","FALSE","FALSE","America/Menominee","4","49858","1840127294","","","","","","","","","","","","","","","","","","","","","","","","","","","","","","","","","","","","","","","","","","","","","","","","","","","","","","","","","","","","","","","","31940","Marinette, WI-MI","FALSE","361","Marinette-Iron Mountain, WI-MI"
"Bates","Bates","","MI","Michigan","26055","Grand Traverse","26055","Grand Traverse","44.7728","-85.4442","","","14.3","point","FALSE","FALSE","FALSE","FALSE","America/Detroit","4","49690","1840127293","","","","","","","","","","","","","","","","","","","","","","","","","","","","","","","","","","","","","","","","","","","","","","","","","","","","","","","","","","","","","","","","45900","Traverse City, MI","FALSE","",""
"Beech","Beech","","MI","Michigan","26163","Wayne","26163","Wayne","42.3778","-83.2955","","","796.0","point","FALSE","FALSE","FALSE","FALSE","America/Detroit","4","48239","1840127296","","","","","","","","","","","","","","","","","","","","","","","","","","","","","","","","","","","","","","","","","","","","","","","","","","","","","","","","","","","","","","","","19820","Detroit-Warren-Dearborn, MI","TRUE","220","Detroit-Warren-Ann Arbor, MI"
"Bear Town","Bear Town","","MI","Michigan","26013","Baraga","26013","Baraga","46.8088","-88.5099","","","4.3","point","FALSE","FALSE","FALSE","FALSE","America/Detroit","5","49908","1840127295","","","","","","","","","","","","","","","","","","","","","","","","","","","","","","","","","","","","","","","","","","","","","","","","","","","","","","","","","","","","","","","","26340","Houghton, MI","FALSE","",""
"Brighton","Brighton","","GA","Georgia","13277","Tift","13277","Tift","31.5027","-83.4560","","","190.4","point","FALSE","FALSE","FALSE","FALSE","America/New_York","4","31794","1840049760","","","","","","","","","","","","","","","","","","","","","","","","","","","","","","","","","","","","","","","","","","","","","","","","","","","","","","","","","","","","","","","","45700","Tifton, GA","FALSE","",""
"Leapwood","Leapwood","","TN","Tennessee","47109","McNairy","47109","McNairy","35.3059","-88.4562","","","22.3","point","FALSE","FALSE","FALSE","FALSE","America/Chicago","4","38310","1840110044","","","","","","","","","","","","","","","","","","","","","","","","","","","","","","","","","","","","","","","","","","","","","","","","","","","","","","","","","","","","","","","","27180","Jackson, TN","TRUE","297","Jackson-Brownsville, TN"
"Driftwood Hills","Driftwood Hills","","IN","Indiana","18097","Marion","18097","Marion","39.9170","-86.1222","","","492.2","point","FALSE","FALSE","FALSE","FALSE","America/Indiana/Indianapolis","4","46240","1840054595","","","","","","","","","","","","","","","","","","","","","","","","","","","","","","","","","","","","","","","","","","","","","","","","","","","","","","","","","","","","","","","","26900","Indianapolis-Carmel-Anderson, IN","TRUE","294","Indianapolis-Carmel-Muncie, IN"
"Leanna","Leanna","","TN","Tennessee","47149","Rutherford","47149","Rutherford","35.9387","-86.4311","","","159.9","point","FALSE","FALSE","FALSE","FALSE","America/Chicago","4","37129","1840110043","","","","","","","","","","","","","","","","","","","","","","","","","","","","","","","","","","","","","","","","","","","","","","","","","","","","","","","","","","","","","","","","34980","Nashville-Davidson--Murfreesboro--Franklin, TN","TRUE","400","Nashville-Davidson--Murfreesboro, TN"
"Marietta","Marietta","","KS","Kansas","20117","Marshall","20117","Marshall","39.9431","-96.6086","","","1.7","point","FALSE","FALSE","FALSE","FALSE","America/Chicago","5","66518","1840030157","","","","","","","","","","","","","","","","","","","","","","","","","","","","","","","","","","","","","","","","","","","","","","","","","","","","","","","","","","","","","","","","","","FALSE","",""
"Shoto","Shoto","","WI","Wisconsin","55071","Manitowoc","55071","Manitowoc","44.1753","-87.6493","","","37.3","point","FALSE","FALSE","FALSE","FALSE","America/Chicago","4","54241","1840124117","","","","","","","","","","","","","","","","","","","","","","","","","","","","","","","","","","","","","","","","","","","","","","","","","","","","","","","","","","","","","","","","31820","Manitowoc, WI","FALSE","",""
"Shortville","Shortville","","WI","Wisconsin","55019","Clark","55019","Clark","44.4950","-90.5165","","","5.7","point","FALSE","FALSE","FALSE","FALSE","America/Chicago","5","54456","1840124116","","","","","","","","","","","","","","","","","","","","","","","","","","","","","","","","","","","","","","","","","","","","","","","","","","","","","","","","","","","","","","","","","","FALSE","",""
"Samaria","Samaria","","MI","Michigan","26115","Monroe","26115","Monroe","41.8081","-83.5783","","","131.1","point","FALSE","FALSE","FALSE","FALSE","America/Detroit","4","48177","1840071230","","","","","","","","","","","","","","","","","","","","","","","","","","","","","","","","","","","","","","","","","","","","","","","","","","","","","","","","","","","","","","","","33780","Monroe, MI","TRUE","220","Detroit-Warren-Ann Arbor, MI"
"Bon Ami","Bon Ami","","TX","Texas","48241","Jasper","48241","Jasper","30.7135","-93.8827","","","20.9","point","FALSE","FALSE","FALSE","FALSE","America/Chicago","4","75956","1840113501","","","","","","","","","","","","","","","","","","","","","","","","","","","","","","","","","","","","","","","","","","","","","","","","","","","","","","","","","","","","","","","","","","FALSE","",""
"Viola","Viola","","MO","Missouri","29209","Stone","29209","Stone","36.5731","-93.5821","","","28.1","point","FALSE","FALSE","FALSE","FALSE","America/Chicago","4","65747","1840077412","","","","","","","","","","","","","","","","","","","","","","","","","","","","","","","","","","","","","","","","","","","","","","","","","","","","","","","","","","","","","","","","","","FALSE","",""
"Ridge Lake North","Ridge Lake North","","TN","Tennessee","47065","Hamilton","47065","Hamilton","35.1434","-85.1927","","","573.2","point","FALSE","FALSE","FALSE","FALSE","America/New_York","4","37343","1840110468","","","","","","","","","","","","","","","","","","","","","","","","","","","","","","","","","","","","","","","","","","","","","","","","","","","","","","","","","","","","","","","","16860","Chattanooga, TN-GA","TRUE","174","Chattanooga-Cleveland-Dalton, TN-GA"
"Christy","Christy","","KY","Kentucky","21205","Rowan","21205","Rowan","38.1948","-83.4144","","","282.1","point","FALSE","FALSE","FALSE","FALSE","America/New_York","4","40351","1840062707","","","","","","","","","","","","","","","","","","","","","","","","","","","","","","","","","","","","","","","","","","","","","","","","","","","","","","","","","","","","","","","","","","FALSE","",""
"The Cross Roads","The Cross Roads","","VA","Virginia","51167","Russell","51167","Russell","36.8429","-82.1571","","","72.4","point","FALSE","FALSE","FALSE","FALSE","America/New_York","4","24266","1840118443","","","","","","","","","","","","","","","","","","","","","","","","","","","","","","","","","","","","","","","","","","","","","","","","","","","","","","","","","","","","","","","","28700","Kingsport-Bristol, TN-VA","TRUE","304","Johnson City-Kingsport-Bristol, TN-VA"
"Templeman","Templeman","","VA","Virginia","51193","Westmoreland","51193","Westmoreland","38.0707","-76.7750","","","21.7","point","FALSE","FALSE","FALSE","FALSE","America/New_York","4","22520","1840118441","","","","","","","","","","","","","","","","","","","","","","","","","","","","","","","","","","","","","","","","","","","","","","","","","","","","","","","","","","","","","","","","15680","California-Lexington Park, MD","TRUE","548","Washington-Baltimore-Arlington, DC-MD-VA-WV-PA"
"Tenso","Tenso","","VA","Virginia","51051","Dickenson","51051","Dickenson","37.1576","-82.3310","","","36.4","point","FALSE","FALSE","FALSE","FALSE","America/New_York","4","24226","1840118442","","","","","","","","","","","","","","","","","","","","","","","","","","","","","","","","","","","","","","","","","","","","","","","","","","","","","","","","","","","","","","","","13720","Big Stone Gap, VA","FALSE","",""
"The Oaks","The Oaks","","VA","Virginia","51001","Accomack","51001","Accomack","37.8940","-75.5108","","","78.9","point","FALSE","FALSE","FALSE","FALSE","America/New_York","4","23303","1840118444","","","","","","","","","","","","","","","","","","","","","","","","","","","","","","","","","","","","","","","","","","","","","","","","","","","","","","","","","","","","","","","","","","FALSE","",""
"Kumukumu","Kumukumu","","HI","Hawaii","15007","Kauai","15007","Kauai","22.1023","-159.3057","","","241.4","point","FALSE","FALSE","FALSE","FALSE","Pacific/Honolulu","4","96751","1840050147","","","","","","","","","","","","","","","","","","","","","","","","","","","","","","","","","","","","","","","","","","","","","","","","","","","","","","","","","","","","","","","","28180","Kapaa, HI","FALSE","",""
"Paradise","Paradise","","AK","Alaska","02290","Yukon-Koyukuk","02290","Yukon-Koyukuk","62.4156","-160.0492","","","0.0","point","FALSE","FALSE","FALSE","FALSE","America/Anchorage","5","99557","1840009381","","","","","","","","","","","","","","","","","","","","","","","","","","","","","","","","","","","","","","","","","","","","","","","","","","","","","","","","","","","","","","","","","","FALSE","",""
"Seloc","Seloc","","SC","South Carolina","45027","Clarendon","45027","Clarendon","33.8813","-80.0084","","","340.0","point","FALSE","FALSE","FALSE","FALSE","America/New_York","4","29162","1840107139","","","","","","","","","","","","","","","","","","","","","","","","","","","","","","","","","","","","","","","","","","","","","","","","","","","","","","","","","","","","","","","","44940","Sumter, SC","TRUE","",""
"Seivern","Seivern","","SC","South Carolina","45003","Aiken","45003","Aiken","33.7151","-81.4098","","","46.0","point","FALSE","FALSE","FALSE","FALSE","America/New_York","4","29164","1840107140","","","","","","","","","","","","","","","","","","","","","","","","","","","","","","","","","","","","","","","","","","","","","","","","","","","","","","","","","","","","","","","","12260","Augusta-Richmond County, GA-SC","TRUE","",""
"Sharon Park","Sharon Park","","SC","South Carolina","45045","Greenville","45045","Greenville","34.9021","-82.4504","","","1026.6","point","FALSE","FALSE","FALSE","FALSE","America/New_York","4","29617","1840107141","","","","","","","","","","","","","","","","","","","","","","","","","","","","","","","","","","","","","","","","","","","","","","","","","","","","","","","","","","","","","","","","24860","Greenville-Anderson, SC","TRUE","273","Greenville-Spartanburg-Anderson, SC"
"Chinnabee","Chinnabee","","AL","Alabama","01121","Talladega","01121","Talladega","33.4629","-85.9669","","","10.8","point","FALSE","FALSE","FALSE","FALSE","America/Chicago","4","36268","1840043336","","","","","","","","","","","","","","","","","","","","","","","","","","","","","","","","","","","","","","","","","","","","","","","","","","","","","","","","","","","","","","","","45180","Talladega-Sylacauga, AL","FALSE","142","Birmingham-Hoover-Talladega, AL"
"Shaw Heights","Shaw Heights","","SC","South Carolina","45085","Sumter","45085","Sumter","33.9846","-80.4826","","","619.9","point","FALSE","FALSE","FALSE","FALSE","America/New_York","4","29152","1840107144","","","","","","","","","","","","","","","","","","","","","","","","","","","","","","","","","","","","","","","","","","","","","","","","","","","","","","","","","","","","","","","","44940","Sumter, SC","TRUE","",""
"Habberton","Habberton","","AR","Arkansas","05143","Washington","05143","Washington","36.1151","-94.0516","","","20.7","point","FALSE","FALSE","FALSE","FALSE","America/Chicago","4","72764","1840040449","","","","","","","","","","","","","","","","","","","","","","","","","","","","","","","","","","","","","","","","","","","","","","","","","","","","","","","","","","","","","","","","22220","Fayetteville-Springdale-Rogers, AR","TRUE","",""
"Roundup","Roundup","","TX","Texas","48219","Hockley","48219","Hockley","33.7623","-102.0971","","","2.4","point","FALSE","FALSE","FALSE","FALSE","America/Chicago","5","79313","1840036565","","","","","","","","","","","","","","","","","","","","","","","","","","","","","","","","","","","","","","","","","","","","","","","","","","","","","","","","","","","","","","","","30220","Levelland, TX","FALSE","352","Lubbock-Plainview-Levelland, TX"
"Prairie Creek","Prairie Creek","","TN","Tennessee","47065","Hamilton","47065","Hamilton","35.1953","-85.1372","","","590.1","point","FALSE","FALSE","FALSE","FALSE","America/New_York","4","37379","1840110420","","","","","","","","","","","","","","","","","","","","","","","","","","","","","","","","","","","","","","","","","","","","","","","","","","","","","","","","","","","","","","","","16860","Chattanooga, TN-GA","TRUE","174","Chattanooga-Cleveland-Dalton, TN-GA"
"Prairie Peninsula","Prairie Peninsula","","TN","Tennessee","47065","Hamilton","47065","Hamilton","35.1931","-85.1475","","","338.4","point","FALSE","FALSE","FALSE","FALSE","America/New_York","4","37343","1840110421","","","","","","","","","","","","","","","","","","","","","","","","","","","","","","","","","","","","","","","","","","","","","","","","","","","","","","","","","","","","","","","","16860","Chattanooga, TN-GA","TRUE","174","Chattanooga-Cleveland-Dalton, TN-GA"
"Melby","Melby","","MN","Minnesota","27041","Douglas","27041","Douglas","46.0638","-95.7359","","","7.9","point","FALSE","FALSE","FALSE","FALSE","America/Chicago","5","56326","1840031853","","","","","","","","","","","","","","","","","","","","","","","","","","","","","","","","","","","","","","","","","","","","","","","","","","","","","","","","","","","","","","","","10820","Alexandria, MN","FALSE","",""
"Hansonville","Hansonville","","VA","Virginia","51167","Russell","51167","Russell","36.8240","-82.1462","","","18.4","point","FALSE","FALSE","FALSE","FALSE","America/New_York","4","24266","1840118084","","","","","","","","","","","","","","","","","","","","","","","","","","","","","","","","","","","","","","","","","","","","","","","","","","","","","","","","","","","","","","","","28700","Kingsport-Bristol, TN-VA","TRUE","304","Johnson City-Kingsport-Bristol, TN-VA"
"Harman","Harman","","VA","Virginia","51027","Buchanan","51027","Buchanan","37.2932","-82.2021","","","23.1","point","FALSE","FALSE","FALSE","FALSE","America/New_York","4","24614","1840148563","","","","","","","","","","","","","","","","","","","","","","","","","","","","","","","","","","","","","","","","","","","","","","","","","","","","","","","","","","","","","","","","","","FALSE","",""
"Prairie Plains","Prairie Plains","","TN","Tennessee","47031","Coffee","47031","Coffee","35.3437","-85.9661","","","11.3","point","FALSE","FALSE","FALSE","FALSE","America/Chicago","4","37342","1840110422","","","","","","","","","","","","","","","","","","","","","","","","","","","","","","","","","","","","","","","","","","","","","","","","","","","","","","","","","","","","","","","","46100","Tullahoma-Manchester, TN","FALSE","",""
"Cooksville","Cooksville","","NC","North Carolina","37035","Catawba","37035","Catawba","35.5932","-81.4759","","","35.0","point","FALSE","FALSE","FALSE","FALSE","America/New_York","4","28168","1840088206","","","","","","","","","","","","","","","","","","","","","","","","","","","","","","","","","","","","","","","","","","","","","","","","","","","","","","","","","","","","","","","","25860","Hickory-Lenoir-Morganton, NC","TRUE","",""
"Barberville","Barberville","","RI","Rhode Island","44009","Washington","44009","Washington","41.5393","-71.6987","","","127.0","point","FALSE","FALSE","FALSE","FALSE","America/New_York","4","02832","1840106060","","","","","","","","","","","","","","","","","","","","","","","","","","","","","","","","","","","","","","","","","","","","","","","","","","","","","","","","","","","","","","","","39300","Providence-Warwick, RI-MA","TRUE","148","Boston-Worcester-Providence, MA-RI-NH-CT"
"Carson Hot Springs","Carson Hot Springs","","NV","Nevada","32510","Carson City","32510","Carson City","39.1938","-119.7527","","","92.6","point","FALSE","FALSE","FALSE","FALSE","America/Los_Angeles","4","89706","1840079434","","","","","","","","","","","","","","","","","","","","","","","","","","","","","","","","","","","","","","","","","","","","","","","","","","","","","","","","","","","","","","","","16180","Carson City, NV","TRUE","456","Reno-Carson City-Fernley, NV"
"Wentworth","Wentworth","","TX","Texas","48467","Van Zandt","48467","Van Zandt","32.5732","-95.8058","","","24.6","point","FALSE","FALSE","FALSE","FALSE","America/Chicago","4","75103","1840113428","","","","","","","","","","","","","","","","","","","","","","","","","","","","","","","","","","","","","","","","","","","","","","","","","","","","","","","","","","","","","","","","","","FALSE","",""
"Bethlehem Center","Bethlehem Center","","NY","New York","36001","Albany","36001","Albany","42.6020","-73.7915","","","280.3","point","FALSE","FALSE","FALSE","FALSE","America/New_York","4","12077","1840083035","","","","","","","","","","","","","","","","","","","","","","","","","","","","","","","","","","","","","","","","","","","","","","","","","","","","","","","","","","","","","","","","10580","Albany-Schenectady-Troy, NY","TRUE","104","Albany-Schenectady, NY"
"Bethel Grove","Bethel Grove","","NY","New York","36109","Tompkins","36109","Tompkins","42.4054","-76.4294","","","112.0","point","FALSE","FALSE","FALSE","FALSE","America/New_York","4","14850","1840083034","","","","","","","","","","","","","","","","","","","","","","","","","","","","","","","","","","","","","","","","","","","","","","","","","","","","","","","","","","","","","","","","27060","Ithaca, NY","TRUE","296","Ithaca-Cortland, NY"
"Glen Alice","Glen Alice","","TN","Tennessee","47145","Roane","47145","Roane","35.8059","-84.7405","","","76.1","point","FALSE","FALSE","FALSE","FALSE","America/New_York","4","37854","1840109753","","","","","","","","","","","","","","","","","","","","","","","","","","","","","","","","","","","","","","","","","","","","","","","","","","","","","","","","","","","","","","","","28940","Knoxville, TN","TRUE","315","Knoxville-Morristown-Sevierville, TN"
"Glass","Glass","","TN","Tennessee","47131","Obion","47131","Obion","36.2648","-89.2537","","","20.0","point","FALSE","FALSE","FALSE","FALSE","America/Chicago","4","38240","1840109752","","","","","","","","","","","","","","","","","","","","","","","","","","","","","","","","","","","","","","","","","","","","","","","","","","","","","","","","","","","","","","","","46460","Union City, TN","FALSE","362","Martin-Union City, TN"
"Mineral","Mineral","","NV","Nevada","32011","Eureka","32011","Eureka","40.1735","-116.1867","","","0.0","point","FALSE","FALSE","FALSE","FALSE","America/Los_Angeles","5","89822","1840079323","","","","","","","","","","","","","","","","","","","","","","","","","","","","","","","","","","","","","","","","","","","","","","","","","","","","","","","","","","","","","","","","21220","Elko, NV","FALSE","",""
"Callaway","Callaway","","KY","Kentucky","21013","Bell","21013","Bell","36.7834","-83.5632","","","59.9","point","FALSE","FALSE","FALSE","FALSE","America/New_York","4","40977","1840060000","","","","","","","","","","","","","","","","","","","","","","","","","","","","","","","","","","","","","","","","","","","","","","","","","","","","","","","","","","","","","","","","33180","Middlesborough, KY","FALSE","",""
"Miriam","Miriam","","NV","Nevada","32001","Churchill","32001","Churchill","39.9585","-118.6879","","","0.0","point","FALSE","FALSE","FALSE","FALSE","America/Los_Angeles","5","89406","1840079324","","","","","","","","","","","","","","","","","","","","","","","","","","","","","","","","","","","","","","","","","","","","","","","","","","","","","","","","","","","","","","","","21980","Fallon, NV","FALSE","",""
"Midway","Midway","","NV","Nevada","32021","Mineral","32021","Mineral","38.7235","-118.3012","","","0.0","point","FALSE","FALSE","FALSE","FALSE","America/Los_Angeles","5","89409","1840079321","","","","","","","","","","","","","","","","","","","","","","","","","","","","","","","","","","","","","","","","","","","","","","","","","","","","","","","","","","","","","","","","","","FALSE","",""
"Middlegate","Middlegate","","NV","Nevada","32001","Churchill","32001","Churchill","39.2877","-118.0265","","","3.4","point","FALSE","FALSE","FALSE","FALSE","America/Los_Angeles","5","89406","1840079320","","","","","","","","","","","","","","","","","","","","","","","","","","","","","","","","","","","","","","","","","","","","","","","","","","","","","","","","","","","","","","","","21980","Fallon, NV","FALSE","",""
"Millers","Millers","","NV","Nevada","32009","Esmeralda","32009","Esmeralda","38.1366","-117.4576","","","0.0","point","FALSE","FALSE","FALSE","FALSE","America/Los_Angeles","5","89049","1840079322","","","","","","","","","","","","","","","","","","","","","","","","","","","","","","","","","","","","","","","","","","","","","","","","","","","","","","","","","","","","","","","","37220","Pahrump, NV","FALSE","332","Las Vegas-Henderson, NV"
"Foxtown","Foxtown","","PA","Pennsylvania","42129","Westmoreland","42129","Westmoreland","40.2253","-79.5859","","","803.5","point","FALSE","FALSE","FALSE","FALSE","America/New_York","4","15639","1840099393","","","","","","","","","","","","","","","","","","","","","","","","","","","","","","","","","","","","","","","","","","","","","","","","","","","","","","","","","","","","","","","","38300","Pittsburgh, PA","TRUE","430","Pittsburgh-New Castle-Weirton, PA-OH-WV"
"Montezuma Wells","Montezuma Wells","","NV","Nevada","32009","Esmeralda","32009","Esmeralda","38.1719","-117.4165","","","0.0","point","FALSE","FALSE","FALSE","FALSE","America/Los_Angeles","5","89049","1840079327","","","","","","","","","","","","","","","","","","","","","","","","","","","","","","","","","","","","","","","","","","","","","","","","","","","","","","","","","","","","","","","","37220","Pahrump, NV","FALSE","332","Las Vegas-Henderson, NV"
"Montezuma","Montezuma","","NV","Nevada","32009","Esmeralda","32009","Esmeralda","37.7038","-117.3690","","","0.0","point","FALSE","FALSE","FALSE","FALSE","America/Los_Angeles","5","89013","1840079326","","","","","","","","","","","","","","","","","","","","","","","","","","","","","","","","","","","","","","","","","","","","","","","","","","","","","","","","","","","","","","","","37220","Pahrump, NV","FALSE","332","Las Vegas-Henderson, NV"
"Liberty Road","Liberty Road","","KY","Kentucky","21175","Morgan","21175","Morgan","37.9056","-83.2927","","","17.0","point","FALSE","FALSE","FALSE","FALSE","America/New_York","4","41472","1840062891","","","","","","","","","","","","","","","","","","","","","","","","","","","","","","","","","","","","","","","","","","","","","","","","","","","","","","","","","","","","","","","","26580","Huntington-Ashland, WV-KY-OH","TRUE","170","Charleston-Huntington-Ashland, WV-OH-KY"
"Mauck","Mauck","","VA","Virginia","51139","Page","51139","Page","38.5604","-78.4464","","","43.1","point","FALSE","FALSE","FALSE","FALSE","America/New_York","4","22851","1840119544","","","","","","","","","","","","","","","","","","","","","","","","","","","","","","","","","","","","","","","","","","","","","","","","","","","","","","","","","","","","","","","","47900","Washington-Arlington-Alexandria, DC-VA-MD-WV","TRUE","548","Washington-Baltimore-Arlington, DC-MD-VA-WV-PA"
"Custer","Custer","","MO","Missouri","29065","Dent","29065","Dent","37.5364","-91.5196","","","4.2","point","FALSE","FALSE","FALSE","FALSE","America/Chicago","5","65501","1840075654","","","","","","","","","","","","","","","","","","","","","","","","","","","","","","","","","","","","","","","","","","","","","","","","","","","","","","","","","","","","","","","","","","FALSE","",""
"Lorena","Lorena","","KS","Kansas","20015","Butler","20015","Butler","37.6939","-97.0839","","","10.4","point","FALSE","FALSE","FALSE","FALSE","America/Chicago","4","67002","1840059592","","","","","","","","","","","","","","","","","","","","","","","","","","","","","","","","","","","","","","","","","","","","","","","","","","","","","","","","","","","","","","","","48620","Wichita, KS","TRUE","556","Wichita-Winfield, KS"
"Yellow Pine","Yellow Pine","","LA","Louisiana","22119","Webster","22119","Webster","32.4771","-93.3243","","","14.6","point","FALSE","FALSE","FALSE","FALSE","America/Chicago","4","71073","1840064467","","","","","","","","","","","","","","","","","","","","","","","","","","","","","","","","","","","","","","","","","","","","","","","","","","","","","","","","","","","","","","","","33380","Minden, LA","FALSE","508","Shreveport-Bossier City-Minden, LA"
"Allen Grove","Allen Grove","","TN","Tennessee","47029","Cocke","47029","Cocke","35.8412","-83.2174","","","68.1","point","FALSE","FALSE","FALSE","FALSE","America/New_York","4","37722","1840112324","","","","","","","","","","","","","","","","","","","","","","","","","","","","","","","","","","","","","","","","","","","","","","","","","","","","","","","","","","","","","","","","35460","Newport, TN","FALSE","315","Knoxville-Morristown-Sevierville, TN"
"Dwaarkill","Dwaarkill","","NY","New York","36111","Ulster","36111","Ulster","41.6487","-74.2638","","","1742.3","point","FALSE","FALSE","FALSE","FALSE","America/New_York","4","12589","1840083537","","","","","","","","","","","","","","","","","","","","","","","","","","","","","","","","","","","","","","","","","","","","","","","","","","","","","","","","","","","","","","","","28740","Kingston, NY","TRUE","408","New York-Newark, NY-NJ-CT-PA"
"Holtzinger","Holtzinger","","WA","Washington","53077","Yakima","53077","Yakima","46.6776","-120.7206","","","104.3","point","FALSE","FALSE","FALSE","FALSE","America/Los_Angeles","4","98923","1840120249","","","","","","","","","","","","","","","","","","","","","","","","","","","","","","","","","","","","","","","","","","","","","","","","","","","","","","","","","","","","","","","","49420","Yakima, WA","TRUE","",""
"Homan","Homan","","WA","Washington","53011","Clark","53011","Clark","45.7004","-122.5829","","","175.6","point","FALSE","FALSE","FALSE","FALSE","America/Los_Angeles","4","98662","1840120250","","","","","","","","","","","","","","","","","","","","","","","","","","","","","","","","","","","","","","","","","","","","","","","","","","","","","","","","","","","","","","","","38900","Portland-Vancouver-Hillsboro, OR-WA","TRUE","440","Portland-Vancouver-Salem, OR-WA"
"Hollywood","Hollywood","","WA","Washington","53033","King","53033","King","47.7309","-122.1293","","","534.4","point","FALSE","FALSE","FALSE","FALSE","America/Los_Angeles","4","98072","1840120247","","","","","","","","","","","","","","","","","","","","","","","","","","","","","","","","","","","","","","","","","","","","","","","","","","","","","","","","","","","","","","","","42660","Seattle-Tacoma-Bellevue, WA","TRUE","500","Seattle-Tacoma, WA"
"Holly Park","Holly Park","","WA","Washington","53033","King","53033","King","47.5418","-122.2918","","","4824.7","point","FALSE","FALSE","FALSE","FALSE","America/Los_Angeles","4","98108","1840120246","","","","","","","","","","","","","","","","","","","","","","","","","","","","","","","","","","","","","","","","","","","","","","","","","","","","","","","","","","","","","","","","42660","Seattle-Tacoma-Bellevue, WA","TRUE","500","Seattle-Tacoma, WA"
"Lockview","Lockview","","PA","Pennsylvania","42125","Washington","42125","Washington","40.1573","-79.9098","","","1264.5","point","FALSE","FALSE","FALSE","FALSE","America/New_York","4","15022","1840100152","","","","","","","","","","","","","","","","","","","","","","","","","","","","","","","","","","","","","","","","","","","","","","","","","","","","","","","","","","","","","","","","38300","Pittsburgh, PA","TRUE","430","Pittsburgh-New Castle-Weirton, PA-OH-WV"
"Holman","Holman","","WA","Washington","53049","Pacific","53049","Pacific","46.3265","-124.0549","","","456.5","point","FALSE","FALSE","FALSE","FALSE","America/Los_Angeles","4","98644","1840120248","","","","","","","","","","","","","","","","","","","","","","","","","","","","","","","","","","","","","","","","","","","","","","","","","","","","","","","","","","","","","","","","","","FALSE","",""
"Home Valley","Home Valley","","WA","Washington","41027","Hood River","41027","Hood River","45.6982","-121.7765","","","0.0","point","FALSE","FALSE","FALSE","FALSE","America/Los_Angeles","5","97014","1840120251","","","","","","","","","","","","","","","","","","","","","","","","","","","","","","","","","","","","","","","","","","","","","","","","","","","","","","","","","","","","","","","","38900","Portland-Vancouver-Hillsboro, OR-WA","TRUE","440","Portland-Vancouver-Salem, OR-WA"
"Tovey Humphrey Station","Tovey Humphrey Station","","IL","Illinois","17021","Christian","17021","Christian","39.5898","-89.4551","","","338.7","point","FALSE","FALSE","FALSE","FALSE","America/Chicago","4","62570","1840051693","","","","","","","","","","","","","","","","","","","","","","","","","","","","","","","","","","","","","","","","","","","","","","","","","","","","","","","","","","","","","","","","45380","Taylorville, IL","FALSE","522","Springfield-Jacksonville-Lincoln, IL"
"Oak Hill","Oak Hill","","KY","Kentucky","21199","Pulaski","21199","Pulaski","37.0581","-84.6463","","","174.6","point","FALSE","FALSE","FALSE","FALSE","America/New_York","4","42503","1840060431","","","","","","","","","","","","","","","","","","","","","","","","","","","","","","","","","","","","","","","","","","","","","","","","","","","","","","","","","","","","","","","","43700","Somerset, KY","FALSE","",""
"Namekagon","Namekagon","","WI","Wisconsin","55007","Bayfield","55007","Bayfield","46.2127","-91.0455","","","23.9","point","FALSE","FALSE","FALSE","FALSE","America/Chicago","4","54821","1840038087","","","","","","","","","","","","","","","","","","","","","","","","","","","","","","","","","","","","","","","","","","","","","","","","","","","","","","","","","","","","","","","","20260","Duluth, MN-WI","TRUE","",""
"Joy","Joy","","KS","Kansas","20097","Kiowa","20097","Kiowa","37.5953","-99.3948","","","0.0","point","FALSE","FALSE","FALSE","FALSE","America/Chicago","5","67109","1840059593","","","","","","","","","","","","","","","","","","","","","","","","","","","","","","","","","","","","","","","","","","","","","","","","","","","","","","","","","","","","","","","","","","FALSE","",""
"Yantisville","Yantisville","","IL","Illinois","17173","Shelby","17173","Shelby","39.5364","-88.8834","","","3.0","point","FALSE","FALSE","FALSE","FALSE","America/Chicago","5","62534","1840051773","","","","","","","","","","","","","","","","","","","","","","","","","","","","","","","","","","","","","","","","","","","","","","","","","","","","","","","","","","","","","","","","","","FALSE","",""
"Marlow","Marlow","","AL","Alabama","01003","Baldwin","01003","Baldwin","30.4610","-87.7992","","","116.0","point","FALSE","FALSE","FALSE","FALSE","America/Chicago","4","36580","1840041393","","","","","","","","","","","","","","","","","","","","","","","","","","","","","","","","","","","","","","","","","","","","","","","","","","","","","","","","","","","","","","","","19300","Daphne-Fairhope-Foley, AL","TRUE","380","Mobile-Daphne-Fairhope, AL"
"Yatesville","Yatesville","","IL","Illinois","17137","Morgan","17137","Morgan","39.8459","-90.0604","","","6.9","point","FALSE","FALSE","FALSE","FALSE","America/Chicago","5","62612","1840051774","","","","","","","","","","","","","","","","","","","","","","","","","","","","","","","","","","","","","","","","","","","","","","","","","","","","","","","","","","","","","","","","27300","Jacksonville, IL","FALSE","522","Springfield-Jacksonville-Lincoln, IL"
"Yellow Banks","Yellow Banks","","IL","Illinois","17071","Henderson","17071","Henderson","40.7303","-91.0813","","","16.9","point","FALSE","FALSE","FALSE","FALSE","America/Chicago","4","61425","1840051775","","","","","","","","","","","","","","","","","","","","","","","","","","","","","","","","","","","","","","","","","","","","","","","","","","","","","","","","","","","","","","","","15460","Burlington, IA-IL","FALSE","161","Burlington-Fort Madison-Keokuk, IA-IL-MO"
"Hayden Row","Hayden Row","","MA","Massachusetts","25017","Middlesex","25017","Middlesex","42.2043","-71.5106","","","374.1","point","FALSE","FALSE","FALSE","FALSE","America/New_York","4","01748","1840031167","","","","","","","","","","","","","","","","","","","","","","","","","","","","","","","","","","","","","","","","","","","","","","","","","","","","","","","","","","","","","","","","14460","Boston-Cambridge-Newton, MA-NH","TRUE","148","Boston-Worcester-Providence, MA-RI-NH-CT"
"Croft","Croft","","KS","Kansas","20151","Pratt","20151","Pratt","37.5034","-98.9948","","","0.7","point","FALSE","FALSE","FALSE","FALSE","America/Chicago","5","67028","1840024911","","","","","","","","","","","","","","","","","","","","","","","","","","","","","","","","","","","","","","","","","","","","","","","","","","","","","","","","","","","","","","","","","","FALSE","",""
"Magnolia","Magnolia","","MD","Maryland","24025","Harford","24025","Harford","39.4048","-76.3247","","","55.6","point","FALSE","FALSE","FALSE","FALSE","America/New_York","4","21085","1840031368","","","","","","","","","","","","","","","","","","","","","","","","","","","","","","","","","","","","","","","","","","","","","","","","","","","","","","","","","","","","","","","","12580","Baltimore-Columbia-Towson, MD","TRUE","548","Washington-Baltimore-Arlington, DC-MD-VA-WV-PA"
"Springvale","Springvale","","KS","Kansas","20151","Pratt","20151","Pratt","37.5120","-98.9462","","","0.6","point","FALSE","FALSE","FALSE","FALSE","America/Chicago","5","67028","1840059595","","","","","","","","","","","","","","","","","","","","","","","","","","","","","","","","","","","","","","","","","","","","","","","","","","","","","","","","","","","","","","","","","","FALSE","",""
"Glenwood Farms","Glenwood Farms","","VA","Virginia","51087","Henrico","51087","Henrico","37.5765","-77.3853","","","1932.4","point","FALSE","FALSE","FALSE","FALSE","America/New_York","4","23223","1840119051","","","","","","","","","","","","","","","","","","","","","","","","","","","","","","","","","","","","","","","","","","","","","","","","","","","","","","","","","","","","","","","","40060","Richmond, VA","TRUE","",""
"Peaden","Peaden","","FL","Florida","12091","Okaloosa","12091","Okaloosa","30.9085","-86.5830","","","2.6","point","FALSE","FALSE","FALSE","FALSE","America/Chicago","5","32531","1840047902","","","","","","","","","","","","","","","","","","","","","","","","","","","","","","","","","","","","","","","","","","","","","","","","","","","","","","","","","","","","","","","","18880","Crestview-Fort Walton Beach-Destin, FL","TRUE","",""
"Alta Vista Terrace","Alta Vista Terrace","","MD","Maryland","24031","Montgomery","24031","Montgomery","39.0054","-77.1205","","","2535.6","point","FALSE","FALSE","FALSE","FALSE","America/New_York","4","20817","1840066861","","","","","","","","","","","","","","","","","","","","","","","","","","","","","","","","","","","","","","","","","","","","","","","","","","","","","","","","","","","","","","","","47900","Washington-Arlington-Alexandria, DC-VA-MD-WV","TRUE","548","Washington-Baltimore-Arlington, DC-MD-VA-WV-PA"
"Clonmel","Clonmel","","KS","Kansas","20173","Sedgwick","20173","Sedgwick","37.5628","-97.5539","","","10.5","point","FALSE","FALSE","FALSE","FALSE","America/Chicago","4","67149","1840059597","","","","","","","","","","","","","","","","","","","","","","","","","","","","","","","","","","","","","","","","","","","","","","","","","","","","","","","","","","","","","","","","48620","Wichita, KS","TRUE","556","Wichita-Winfield, KS"
"Cartney","Cartney","","AR","Arkansas","05005","Baxter","05005","Baxter","36.1945","-92.3824","","","9.8","point","FALSE","FALSE","FALSE","FALSE","America/Chicago","5","72653","1840040068","","","","","","","","","","","","","","","","","","","","","","","","","","","","","","","","","","","","","","","","","","","","","","","","","","","","","","","","","","","","","","","","34260","Mountain Home, AR","FALSE","",""
"Cave Creek","Cave Creek","","AR","Arkansas","05101","Newton","05101","Newton","35.9292","-92.9793","","","8.9","point","FALSE","FALSE","FALSE","FALSE","America/Chicago","5","72655","1840040359","","","","","","","","","","","","","","","","","","","","","","","","","","","","","","","","","","","","","","","","","","","","","","","","","","","","","","","","","","","","","","","","25460","Harrison, AR","FALSE","",""
"Cauthron","Cauthron","","AR","Arkansas","05127","Scott","05127","Scott","34.9209","-94.2974","","","47.2","point","FALSE","FALSE","FALSE","FALSE","America/Chicago","4","72958","1840003892","","","","","","","","","","","","","","","","","","","","","","","","","","","","","","","","","","","","","","","","","","","","","","","","","","","","","","","","","","","","","","","","","","FALSE","",""
"Lansdowne","Lansdowne","","KS","Kansas","20095","Kingman","20095","Kingman","37.6183","-97.8628","","","2.8","point","FALSE","FALSE","FALSE","FALSE","America/Chicago","5","67111","1840059596","","","","","","","","","","","","","","","","","","","","","","","","","","","","","","","","","","","","","","","","","","","","","","","","","","","","","","","","","","","","","","","","","","FALSE","",""
"Opossum Creek Pines","Opossum Creek Pines","","TN","Tennessee","47065","Hamilton","47065","Hamilton","35.3059","-85.0980","","","139.7","point","FALSE","FALSE","FALSE","FALSE","America/New_York","4","37379","1840110321","","","","","","","","","","","","","","","","","","","","","","","","","","","","","","","","","","","","","","","","","","","","","","","","","","","","","","","","","","","","","","","","16860","Chattanooga, TN-GA","TRUE","174","Chattanooga-Cleveland-Dalton, TN-GA"
"Woodlawn","Woodlawn","","HI","Hawaii","15003","Honolulu","15003","Honolulu","21.3154","-157.8042","","","3120.6","point","FALSE","FALSE","FALSE","FALSE","Pacific/Honolulu","4","96822","1840050234","","","","","","","","","","","","","","","","","","","","","","","","","","","","","","","","","","","","","","","","","","","","","","","","","","","","","","","","","","","","","","","","46520","Urban Honolulu, HI","TRUE","",""
"Pleasant Run","Pleasant Run","","WV","West Virginia","54093","Tucker","54093","Tucker","39.0443","-79.7234","","","4.1","point","FALSE","FALSE","FALSE","FALSE","America/New_York","5","26276","1840121878","","","","","","","","","","","","","","","","","","","","","","","","","","","","","","","","","","","","","","","","","","","","","","","","","","","","","","","","","","","","","","","","21180","Elkins, WV","FALSE","",""
"Warner","Warner","","VA","Virginia","51119","Middlesex","51119","Middlesex","37.6385","-76.6455","","","29.6","point","FALSE","FALSE","FALSE","FALSE","America/New_York","4","23175","1840116451","","","","","","","","","","","","","","","","","","","","","","","","","","","","","","","","","","","","","","","","","","","","","","","","","","","","","","","","","","","","","","","","","","FALSE","",""
"Havana","Havana","","AL","Alabama","01065","Hale","01065","Hale","32.8951","-87.6203","","","18.8","point","FALSE","FALSE","FALSE","FALSE","America/Chicago","4","35474","1840043380","","","","","","","","","","","","","","","","","","","","","","","","","","","","","","","","","","","","","","","","","","","","","","","","","","","","","","","","","","","","","","","","46220","Tuscaloosa, AL","TRUE","",""
"Harrisburg","Harrisburg","","AL","Alabama","01007","Bibb","01007","Bibb","32.8760","-87.2244","","","13.2","point","FALSE","FALSE","FALSE","FALSE","America/Chicago","4","35034","1840043378","","","","","","","","","","","","","","","","","","","","","","","","","","","","","","","","","","","","","","","","","","","","","","","","","","","","","","","","","","","","","","","","13820","Birmingham-Hoover, AL","TRUE","142","Birmingham-Hoover-Talladega, AL"
"Hatchet","Hatchet","","AL","Alabama","01037","Coosa","01037","Coosa","33.0168","-86.1050","","","7.8","point","FALSE","FALSE","FALSE","FALSE","America/Chicago","5","35072","1840043379","","","","","","","","","","","","","","","","","","","","","","","","","","","","","","","","","","","","","","","","","","","","","","","","","","","","","","","","","","","","","","","","10760","Alexander City, AL","FALSE","388","Montgomery-Selma-Alexander City, AL"
"Mount Carmel","Mount Carmel","","AL","Alabama","01089","Madison","01089","Madison","34.7993","-86.4975","","","693.5","point","FALSE","FALSE","FALSE","FALSE","America/Chicago","4","35811","1840148568","","","","","","","","","","","","","","","","","","","","","","","","","","","","","","","","","","","","","","","","","","","","","","","","","","","","","","","","","","","","","","","","26620","Huntsville, AL","TRUE","290","Huntsville-Decatur, AL"
"Wares Crossroads","Wares Crossroads","","VA","Virginia","51109","Louisa","51109","Louisa","38.0796","-77.8800","","","14.1","point","FALSE","FALSE","FALSE","FALSE","America/New_York","4","23117","1840116450","","","","","","","","","","","","","","","","","","","","","","","","","","","","","","","","","","","","","","","","","","","","","","","","","","","","","","","","","","","","","","","","47900","Washington-Arlington-Alexandria, DC-VA-MD-WV","TRUE","548","Washington-Baltimore-Arlington, DC-MD-VA-WV-PA"
"Walmsley","Walmsley","","VA","Virginia","51133","Northumberland","51133","Northumberland","37.9412","-76.5352","","","31.5","point","FALSE","FALSE","FALSE","FALSE","America/New_York","4","22435","1840116447","","","","","","","","","","","","","","","","","","","","","","","","","","","","","","","","","","","","","","","","","","","","","","","","","","","","","","","","","","","","","","","","","","FALSE","",""
"Leadpoint","Leadpoint","","WA","Washington","53065","Stevens","53065","Stevens","48.9094","-117.5875","","","6.9","point","FALSE","FALSE","FALSE","FALSE","America/Los_Angeles","5","99114","1840037784","","","","","","","","","","","","","","","","","","","","","","","","","","","","","","","","","","","","","","","","","","","","","","","","","","","","","","","","","","","","","","","","44060","Spokane-Spokane Valley, WA","TRUE","518","Spokane-Spokane Valley-Coeur d'Alene, WA-ID"
"Zenith Heights","Zenith Heights","","MI","Michigan","26029","Charlevoix","26029","Charlevoix","45.3061","-85.0356","","","37.6","point","FALSE","FALSE","FALSE","FALSE","America/Detroit","4","49712","1840127756","","","","","","","","","","","","","","","","","","","","","","","","","","","","","","","","","","","","","","","","","","","","","","","","","","","","","","","","","","","","","","","","45900","Traverse City, MI","FALSE","",""
"Dillons Fork","Dillons Fork","","VA","Virginia","51089","Henry","51089","Henry","36.6957","-80.0062","","","97.4","point","FALSE","FALSE","FALSE","FALSE","America/New_York","4","24089","1840115583","","","","","","","","","","","","","","","","","","","","","","","","","","","","","","","","","","","","","","","","","","","","","","","","","","","","","","","","","","","","","","","","32300","Martinsville, VA","FALSE","",""
"Ramn Pabn","Ramon Pabon","","PR","Puerto Rico","72101","Morovis","72101","Morovis","18.3336","-66.3691","","","659.4","point","FALSE","FALSE","FALSE","FALSE","America/Puerto_Rico","4","00687","1630126724","","","","","","","","","","","","","","","","","","","","","","","","","","","","","","","","","","","","","","","","","","","","","","","","","","","","","","","","","","","","","","","","41980","San Juan-Bayamn-Caguas, PR","TRUE","490","San Juan-Bayamn, PR"
"Radioville","Radioville","","PR","Puerto Rico","72013","Arecibo","72013","Arecibo","18.4758","-66.7513","","","1572.2","point","FALSE","FALSE","FALSE","FALSE","America/Puerto_Rico","4","00612","1630126720","","","","","","","","","","","","","","","","","","","","","","","","","","","","","","","","","","","","","","","","","","","","","","","","","","","","","","","","","","","","","","","","11640","Arecibo, PR","TRUE","490","San Juan-Bayamn, PR"
"Rafael Arroyo","Rafael Arroyo","","PR","Puerto Rico","72054","Florida","72054","Florida","18.3644","-66.5466","","","619.3","point","FALSE","FALSE","FALSE","FALSE","America/Puerto_Rico","4","00650","1630126721","","","","","","","","","","","","","","","","","","","","","","","","","","","","","","","","","","","","","","","","","","","","","","","","","","","","","","","","","","","","","","","","41980","San Juan-Bayamn-Caguas, PR","TRUE","490","San Juan-Bayamn, PR"
"Ramn Coln","Ramon Colon","","PR","Puerto Rico","72139","Trujillo Alto","72139","Trujillo Alto","18.3116","-65.9766","","","1435.9","point","FALSE","FALSE","FALSE","FALSE","America/Puerto_Rico","4","00976","1630126722","","","","","","","","","","","","","","","","","","","","","","","","","","","","","","","","","","","","","","","","","","","","","","","","","","","","","","","","","","","","","","","","41980","San Juan-Bayamn-Caguas, PR","TRUE","490","San Juan-Bayamn, PR"
"Quemados","Quemados","","PR","Puerto Rico","72129","San Lorenzo","72129","San Lorenzo","18.1825","-65.9868","","","487.8","point","FALSE","FALSE","FALSE","FALSE","America/Puerto_Rico","4","00754","1630126717","","","","","","","","","","","","","","","","","","","","","","","","","","","","","","","","","","","","","","","","","","","","","","","","","","","","","","","","","","","","","","","","41980","San Juan-Bayamn-Caguas, PR","TRUE","490","San Juan-Bayamn, PR"
"Quinta Esperanza","Quinta Esperanza","","PR","Puerto Rico","72113","Ponce","72113","Ponce","17.9683","-66.5677","","","4.7","point","FALSE","FALSE","FALSE","FALSE","America/Puerto_Rico","5","00715","1630126718","","","","","","","","","","","","","","","","","","","","","","","","","","","","","","","","","","","","","","","","","","","","","","","","","","","","","","","","","","","","","","","","38660","Ponce, PR","TRUE","434","Ponce-Yauco-Coamo, PR"
"Rabo del Buey","Rabo del Buey","","PR","Puerto Rico","72123","Salinas","72123","Salinas","18.0350","-66.2404","","","24.7","point","FALSE","FALSE","FALSE","FALSE","America/Puerto_Rico","4","00751","1630126719","","","","","","","","","","","","","","","","","","","","","","","","","","","","","","","","","","","","","","","","","","","","","","","","","","","","","","","","","","","","","","","","17640","Coco, PR","FALSE","490","San Juan-Bayamn, PR"
"Ottawa","Ottawa","","IA","Iowa","19039","Clarke","19039","Clarke","41.0300","-93.5910","","","1.3","point","FALSE","FALSE","FALSE","FALSE","America/Chicago","5","50275","1840057487","","","","","","","","","","","","","","","","","","","","","","","","","","","","","","","","","","","","","","","","","","","","","","","","","","","","","","","","","","","","","","","","","","FALSE","",""
"South Union","South Union","","KY","Kentucky","21141","Logan","21141","Logan","36.8764","-86.6564","","","9.5","point","FALSE","FALSE","FALSE","FALSE","America/Chicago","5","42206","1840060594","","","","","","","","","","","","","","","","","","","","","","","","","","","","","","","","","","","","","","","","","","","","","","","","","","","","","","","","","","","","","","","","14540","Bowling Green, KY","TRUE","150","Bowling Green-Glasgow, KY"
"Forest Green","Forest Green","","MT","Montana","30059","Meagher","30059","Meagher","46.7614","-110.7405","","","0.4","point","FALSE","FALSE","FALSE","FALSE","America/Denver","5","59645","1840078228","","","","","","","","","","","","","","","","","","","","","","","","","","","","","","","","","","","","","","","","","","","","","","","","","","","","","","","","","","","","","","","","","","FALSE","",""
"Meeks Settlement","Meeks Settlement","","AR","Arkansas","05019","Clark","05019","Clark","34.0418","-93.3918","","","16.8","point","FALSE","FALSE","FALSE","FALSE","America/Chicago","4","71962","1840038726","","","","","","","","","","","","","","","","","","","","","","","","","","","","","","","","","","","","","","","","","","","","","","","","","","","","","","","","","","","","","","","","11660","Arkadelphia, AR","FALSE","",""
"Crescent Hills","Crescent Hills","","PA","Pennsylvania","42003","Allegheny","42003","Allegheny","40.4709","-79.8248","","","885.6","point","FALSE","FALSE","FALSE","FALSE","America/New_York","4","15235","1840098962","","","","","","","","","","","","","","","","","","","","","","","","","","","","","","","","","","","","","","","","","","","","","","","","","","","","","","","","","","","","","","","","38300","Pittsburgh, PA","TRUE","430","Pittsburgh-New Castle-Weirton, PA-OH-WV"
"Rockwood","Rockwood","","NY","New York","36035","Fulton","36035","Fulton","43.0581","-74.5040","","","41.5","point","FALSE","FALSE","FALSE","FALSE","America/New_York","4","12095","1840085143","","","","","","","","","","","","","","","","","","","","","","","","","","","","","","","","","","","","","","","","","","","","","","","","","","","","","","","","","","","","","","","","24100","Gloversville, NY","FALSE","104","Albany-Schenectady, NY"
"Rockwells Mills","Rockwells Mills","","NY","New York","36017","Chenango","36017","Chenango","42.4487","-75.3899","","","48.2","point","FALSE","FALSE","FALSE","FALSE","America/New_York","4","13809","1840085142","","","","","","","","","","","","","","","","","","","","","","","","","","","","","","","","","","","","","","","","","","","","","","","","","","","","","","","","","","","","","","","","36580","Oneonta, NY","FALSE","",""
"Summersville","Summersville","","TN","Tennessee","47163","Sullivan","47163","Sullivan","36.4648","-82.5307","","","213.4","point","FALSE","FALSE","FALSE","FALSE","America/New_York","4","37663","1840109068","","","","","","","","","","","","","","","","","","","","","","","","","","","","","","","","","","","","","","","","","","","","","","","","","","","","","","","","","","","","","","","","28700","Kingsport-Bristol, TN-VA","TRUE","304","Johnson City-Kingsport-Bristol, TN-VA"
"Eulaton","Eulaton","","AL","Alabama","01015","Calhoun","01015","Calhoun","33.6457","-85.9125","","","185.3","point","FALSE","FALSE","FALSE","FALSE","America/Chicago","4","36201","1840023726","","","","","","","","","","","","","","","","","","","","","","","","","","","","","","","","","","","","","","","","","","","","","","","","","","","","","","","","","","","","","","","","11500","Anniston-Oxford, AL","TRUE","",""
"Suiter","Suiter","","OH","Ohio","39087","Lawrence","39087","Lawrence","38.5904","-82.4249","","","12.4","point","FALSE","FALSE","FALSE","FALSE","America/New_York","4","45696","1840094940","","","","","","","","","","","","","","","","","","","","","","","","","","","","","","","","","","","","","","","","","","","","","","","","","","","","","","","","","","","","","","","","26580","Huntington-Ashland, WV-KY-OH","TRUE","170","Charleston-Huntington-Ashland, WV-OH-KY"
"Highcliff","Highcliff","","TN","Tennessee","47013","Campbell","47013","Campbell","36.5823","-84.0760","","","7.8","point","FALSE","FALSE","FALSE","FALSE","America/New_York","5","37762","1840109876","","","","","","","","","","","","","","","","","","","","","","","","","","","","","","","","","","","","","","","","","","","","","","","","","","","","","","","","","","","","","","","","28940","Knoxville, TN","TRUE","315","Knoxville-Morristown-Sevierville, TN"
"Whitfield Estates","Whitfield Estates","","FL","Florida","12081","Manatee","12081","Manatee","27.4100","-82.5693","","","1161.3","point","FALSE","FALSE","FALSE","FALSE","America/New_York","4","34243","1840047093","","","","","","","","","","","","","","","","","","","","","","","","","","","","","","","","","","","","","","","","","","","","","","","","","","","","","","","","","","","","","","","","35840","North Port-Sarasota-Bradenton, FL","TRUE","412","North Port-Sarasota, FL"
"Whitney","Whitney","","FL","Florida","12069","Lake","12069","Lake","28.8172","-81.9370","","","333.0","point","FALSE","FALSE","FALSE","FALSE","America/New_York","4","34748","1840047094","","","","","","","","","","","","","","","","","","","","","","","","","","","","","","","","","","","","","","","","","","","","","","","","","","","","","","","","","","","","","","","","36740","Orlando-Kissimmee-Sanford, FL","TRUE","422","Orlando-Lakeland-Deltona, FL"
"Panther Valley","Panther Valley","","NV","Nevada","32031","Washoe","32031","Washoe","39.5907","-119.8185","","","562.3","point","FALSE","FALSE","FALSE","FALSE","America/Los_Angeles","4","89506","1840079214","","","","","","","","","","","","","","","","","","","","","","","","","","","","","","","","","","","","","","","","","","","","","","","","","","","","","","","","","","","","","","","","39900","Reno, NV","TRUE","456","Reno-Carson City-Fernley, NV"
"Kent","Kent","","AL","Alabama","01051","Elmore","01051","Elmore","32.6190","-85.9486","","","32.5","point","FALSE","FALSE","FALSE","FALSE","America/Chicago","4","36078","1840025224","","","","","","","","","","","","","","","","","","","","","","","","","","","","","","","","","","","","","","","","","","","","","","","","","","","","","","","","","","","","","","","","33860","Montgomery, AL","TRUE","388","Montgomery-Selma-Alexander City, AL"
"Jonesville","Jonesville","","AR","Arkansas","05091","Miller","05091","Miller","33.2257","-93.9377","","","3.1","point","FALSE","FALSE","FALSE","FALSE","America/Chicago","5","71837","1840039981","","","","","","","","","","","","","","","","","","","","","","","","","","","","","","","","","","","","","","","","","","","","","","","","","","","","","","","","","","","","","","","","45500","Texarkana, TX-AR","TRUE","",""
"Point Cedar","Point Cedar","","AR","Arkansas","05059","Hot Spring","05059","Hot Spring","34.3276","-93.3074","","","17.7","point","FALSE","FALSE","FALSE","FALSE","America/Chicago","4","71929","1840027670","","","","","","","","","","","","","","","","","","","","","","","","","","","","","","","","","","","","","","","","","","","","","","","","","","","","","","","","","","","","","","","","31680","Malvern, AR","FALSE","284","Hot Springs-Malvern, AR"
"Harris Crossroads","Harris Crossroads","","NC","North Carolina","37181","Vance","37181","Vance","36.4004","-78.4189","","","24.9","point","FALSE","FALSE","FALSE","FALSE","America/New_York","4","27537","1840148572","","","","","","","","","","","","","","","","","","","","","","","","","","","","","","","","","","","","","","","","","","","","","","","","","","","","","","","","","","","","","","","","25780","Henderson, NC","FALSE","450","Raleigh-Durham-Cary, NC"
"Ossawinamakee Beach","Ossawinamakee Beach","","MI","Michigan","26153","Schoolcraft","26153","Schoolcraft","45.9980","-86.2938","","","163.8","point","FALSE","FALSE","FALSE","FALSE","America/Detroit","4","49854","1840127881","","","","","","","","","","","","","","","","","","","","","","","","","","","","","","","","","","","","","","","","","","","","","","","","","","","","","","","","","","","","","","","","","","FALSE","",""
"Nary","Nary","","MN","Minnesota","27057","Hubbard","27057","Hubbard","47.3669","-94.8233","","","15.7","point","FALSE","FALSE","FALSE","FALSE","America/Chicago","4","56601","1840072022","","","","","","","","","","","","","","","","","","","","","","","","","","","","","","","","","","","","","","","","","","","","","","","","","","","","","","","","","","","","","","","","","","FALSE","",""
"Vilas","Vilas","","NC","North Carolina","37189","Watauga","37189","Watauga","36.2457","-81.7676","","","81.8","point","FALSE","FALSE","FALSE","FALSE","America/New_York","4","28692","1840090776","","","","","","","","","","","","","","","","","","","","","","","","","","","","","","","","","","","","","","","","","","","","","","","","","","","","","","","","","","","","","","","","14380","Boone, NC","FALSE","",""
"Lily Cache","Lily Cache","","IL","Illinois","17197","Will","17197","Will","41.5903","-88.1815","","","851.9","point","FALSE","FALSE","FALSE","FALSE","America/Chicago","4","60544","1840029778","","","","","","","","","","","","","","","","","","","","","","","","","","","","","","","","","","","","","","","","","","","","","","","","","","","","","","","","","","","","","","","","16980","Chicago-Naperville-Elgin, IL-IN-WI","TRUE","176","Chicago-Naperville, IL-IN-WI"
"Piopolis","Piopolis","","IL","Illinois","17065","Hamilton","17065","Hamilton","38.1837","-88.5614","","","3.3","point","FALSE","FALSE","FALSE","FALSE","America/Chicago","5","62859","1840051537","","","","","","","","","","","","","","","","","","","","","","","","","","","","","","","","","","","","","","","","","","","","","","","","","","","","","","","","","","","","","","","","","","FALSE","",""
"Shakespeare","Shakespeare","","NM","New Mexico","35023","Hidalgo","35023","Hidalgo","32.3259","-108.7384","","","0.0","point","FALSE","FALSE","FALSE","FALSE","America/Denver","5","88045","1840082797","","","","","","","","","","","","","","","","","","","","","","","","","","","","","","","","","","","","","","","","","","","","","","","","","","","","","","","","","","","","","","","","43500","Silver City, NM","FALSE","",""
"Park View","Park View","","DC","District of Columbia","11001","District of Columbia","11001","District of Columbia","38.9321","-77.0236","","","9374.2","point","FALSE","FALSE","FALSE","FALSE","America/New_York","4","20010","1840063164","","","","","","","","","","","","","","","","","","","","","","","","","","","","","","","","","","","","","","","","","","","","","","","","","","","","","","","","","","","","","","","","47900","Washington-Arlington-Alexandria, DC-VA-MD-WV","TRUE","548","Washington-Baltimore-Arlington, DC-MD-VA-WV-PA"
"Aberfoil","Aberfoil","","AL","Alabama","01011","Bullock","01011","Bullock","32.0704","-85.6877","","","19.7","point","FALSE","FALSE","FALSE","FALSE","America/Chicago","4","36089","1840023695","","","","","","","","","","","","","","","","","","","","","","","","","","","","","","","","","","","","","","","","","","","","","","","","","","","","","","","","","","","","","","","","21640","Eufaula, AL-GA","FALSE","",""
"Abernant","Abernant","","AL","Alabama","01125","Tuscaloosa","01125","Tuscaloosa","33.2904","-87.1981","","","153.3","point","FALSE","FALSE","FALSE","FALSE","America/Chicago","4","35490","1840023696","","","","","","","","","","","","","","","","","","","","","","","","","","","","","","","","","","","","","","","","","","","","","","","","","","","","","","","","","","","","","","","","46220","Tuscaloosa, AL","TRUE","",""
"Idlewild","Idlewild","","NC","North Carolina","37009","Ashe","37009","Ashe","36.2893","-81.4462","","","16.7","point","FALSE","FALSE","FALSE","FALSE","America/New_York","4","28694","1840088411","","","","","","","","","","","","","","","","","","","","","","","","","","","","","","","","","","","","","","","","","","","","","","","","","","","","","","","","","","","","","","","","35900","North Wilkesboro, NC","FALSE","",""
"Ijames Crossroads","Ijames Crossroads","","NC","North Carolina","37059","Davie","37059","Davie","35.9354","-80.6426","","","32.3","point","FALSE","FALSE","FALSE","FALSE","America/New_York","4","27028","1840088412","","","","","","","","","","","","","","","","","","","","","","","","","","","","","","","","","","","","","","","","","","","","","","","","","","","","","","","","","","","","","","","","49180","Winston-Salem, NC","TRUE","268","Greensboro--Winston-Salem--High Point, NC"
"Camp Connell","Camp Connell","","CA","California","06009","Calaveras","06009","Calaveras","38.3094","-120.2783","","","31.8","point","FALSE","FALSE","FALSE","FALSE","America/Los_Angeles","4","95223","1840129786","","","","","","","","","","","","","","","","","","","","","","","","","","","","","","","","","","","","","","","","","","","","","","","","","","","","","","","","","","","","","","","","43760","Sonora, CA","FALSE","",""
"Chrome","Chrome","","CA","California","06021","Glenn","06021","Glenn","39.7290","-122.5494","","","0.9","point","FALSE","FALSE","FALSE","FALSE","America/Los_Angeles","5","95963","1840129787","","","","","","","","","","","","","","","","","","","","","","","","","","","","","","","","","","","","","","","","","","","","","","","","","","","","","","","","","","","","","","","","","","FALSE","",""
"Lingard","Lingard","","CA","California","06047","Merced","06047","Merced","37.2402","-120.3974","","","14.2","point","FALSE","FALSE","FALSE","FALSE","America/Los_Angeles","4","95341","1840129790","","","","","","","","","","","","","","","","","","","","","","","","","","","","","","","","","","","","","","","","","","","","","","","","","","","","","","","","","","","","","","","","32900","Merced, CA","TRUE","488","San Jose-San Francisco-Oakland, CA"
"Beck","Beck","","AR","Arkansas","05035","Crittenden","05035","Crittenden","34.9226","-90.3959","","","15.7","point","FALSE","FALSE","FALSE","FALSE","America/Chicago","4","72348","1840148578","","","","","","","","","","","","","","","","","","","","","","","","","","","","","","","","","","","","","","","","","","","","","","","","","","","","","","","","","","","","","","","","32820","Memphis, TN-MS-AR","TRUE","368","Memphis-Forrest City, TN-MS-AR"
"Salt Well","Salt Well","","AL","Alabama","01091","Marengo","01091","Marengo","32.4571","-87.9311","","","7.4","point","FALSE","FALSE","FALSE","FALSE","America/Chicago","5","36732","1840041652","","","","","","","","","","","","","","","","","","","","","","","","","","","","","","","","","","","","","","","","","","","","","","","","","","","","","","","","","","","","","","","","","","FALSE","",""
"Elliottville","Elliottville","","OH","Ohio","39009","Athens","39009","Athens","39.3120","-82.1226","","","71.9","point","FALSE","FALSE","FALSE","FALSE","America/New_York","4","45701","1840094765","","","","","","","","","","","","","","","","","","","","","","","","","","","","","","","","","","","","","","","","","","","","","","","","","","","","","","","","","","","","","","","","11900","Athens, OH","FALSE","",""
"Cordell","Cordell","","OK","Oklahoma","40149","Washita","40149","Washita","35.2906","-98.9884","","","455.2","point","FALSE","FALSE","FALSE","FALSE","America/Chicago","3","73632","1840034617","","","","","","","","","","","","","","","","","","","","","","","","","","","","","","","","","","","","","","","","","","","","","","","","","","","","","","","","","","","","","","","","","","FALSE","",""
"Poston Crossroads","Poston Crossroads","","SC","South Carolina","45041","Florence","45041","Florence","33.9046","-79.5478","","","24.2","point","FALSE","FALSE","FALSE","FALSE","America/New_York","4","29583","1840107661","","","","","","","","","","","","","","","","","","","","","","","","","","","","","","","","","","","","","","","","","","","","","","","","","","","","","","","","","","","","","","","","22500","Florence, SC","TRUE","",""
"Industry","Industry","","KS","Kansas","20041","Dickinson","20041","Dickinson","39.1333","-97.1714","","","2.7","point","FALSE","FALSE","FALSE","FALSE","America/Chicago","5","67410","1840030233","","","","","","","","","","","","","","","","","","","","","","","","","","","","","","","","","","","","","","","","","","","","","","","","","","","","","","","","","","","","","","","","","","FALSE","",""
"Lyons","Lyons","","KY","Kentucky","21123","Larue","21123","Larue","37.6778","-85.6125","","","100.3","point","FALSE","FALSE","FALSE","FALSE","America/New_York","4","40051","1840060349","","","","","","","","","","","","","","","","","","","","","","","","","","","","","","","","","","","","","","","","","","","","","","","","","","","","","","","","","","","","","","","","12680","Bardstown, KY","FALSE","350","Louisville/Jefferson County--Elizabethtown--Bardstown, KY-IN"
"Trailer Estates","Trailer Estates","","FL","Florida","12081","Manatee","12081","Manatee","27.4245","-82.5801","","","1632.6","point","FALSE","FALSE","FALSE","FALSE","America/New_York","4","34207","1840047062","","","","","","","","","","","","","","","","","","","","","","","","","","","","","","","","","","","","","","","","","","","","","","","","","","","","","","","","","","","","","","","","35840","North Port-Sarasota-Bradenton, FL","TRUE","412","North Port-Sarasota, FL"
"Trail Center","Trail Center","","FL","Florida","12087","Monroe","12087","Monroe","25.8048","-80.8759","","","0.1","point","FALSE","FALSE","FALSE","FALSE","America/New_York","5","34141","1840047061","","","","","","","","","","","","","","","","","","","","","","","","","","","","","","","","","","","","","","","","","","","","","","","","","","","","","","","","","","","","","","","","28580","Key West, FL","FALSE","370","Miami-Port St. Lucie-Fort Lauderdale, FL"
"Equinunk","Equinunk","","PA","Pennsylvania","42127","Wayne","42127","Wayne","41.8559","-75.2238","","","62.3","point","FALSE","FALSE","FALSE","FALSE","America/New_York","4","18417","1840099238","","","","","","","","","","","","","","","","","","","","","","","","","","","","","","","","","","","","","","","","","","","","","","","","","","","","","","","","","","","","","","","","","","FALSE","",""
"South Russell","South Russell","","NY","New York","36089","St. Lawrence","36089","St. Lawrence","44.3715","-75.1274","","","29.2","point","FALSE","FALSE","FALSE","FALSE","America/New_York","4","13684","1840087120","","","","","","","","","","","","","","","","","","","","","","","","","","","","","","","","","","","","","","","","","","","","","","","","","","","","","","","","","","","","","","","","36300","Ogdensburg-Massena, NY","FALSE","",""
"Kings Heights","Kings Heights","","OR","Oregon","41051","Multnomah","41051","Multnomah","45.5293","-122.7079","","","4277.7","point","FALSE","FALSE","FALSE","FALSE","America/Los_Angeles","4","97210","1840097371","","","","","","","","","","","","","","","","","","","","","","","","","","","","","","","","","","","","","","","","","","","","","","","","","","","","","","","","","","","","","","","","38900","Portland-Vancouver-Hillsboro, OR-WA","TRUE","440","Portland-Vancouver-Salem, OR-WA"
"Huntsville","Huntsville","","IN","Indiana","18095","Madison","18095","Madison","40.0087","-85.7303","","","338.0","point","FALSE","FALSE","FALSE","FALSE","America/Indiana/Indianapolis","4","46064","1840054928","","","","","","","","","","","","","","","","","","","","","","","","","","","","","","","","","","","","","","","","","","","","","","","","","","","","","","","","","","","","","","","","26900","Indianapolis-Carmel-Anderson, IN","TRUE","294","Indianapolis-Carmel-Muncie, IN"
"South Hammond","South Hammond","","NY","New York","36089","St. Lawrence","36089","St. Lawrence","44.3992","-75.7330","","","3.0","point","FALSE","FALSE","FALSE","FALSE","America/New_York","5","13646","1840087119","","","","","","","","","","","","","","","","","","","","","","","","","","","","","","","","","","","","","","","","","","","","","","","","","","","","","","","","","","","","","","","","36300","Ogdensburg-Massena, NY","FALSE","",""
"Fish Creek","Fish Creek","","WI","Wisconsin","55029","Door","55029","Door","45.1278","-87.2471","","","41.7","point","FALSE","FALSE","FALSE","FALSE","America/Chicago","4","54212","1840037946","","","","","","","","","","","","","","","","","","","","","","","","","","","","","","","","","","","","","","","","","","","","","","","","","","","","","","","","","","","","","","","","","","FALSE","",""
"Falfa","Falfa","","CO","Colorado","08067","La Plata","08067","La Plata","37.2131","-107.7909","","","43.4","point","FALSE","FALSE","FALSE","FALSE","America/Denver","4","81303","1840044391","","","","","","","","","","","","","","","","","","","","","","","","","","","","","","","","","","","","","","","","","","","","","","","","","","","","","","","","","","","","","","","","20420","Durango, CO","FALSE","",""
"Oxford","Oxford","","CO","Colorado","08067","La Plata","08067","La Plata","37.1689","-107.7142","","","44.5","point","FALSE","FALSE","FALSE","FALSE","America/Denver","4","81137","1840028539","","","","","","","","","","","","","","","","","","","","","","","","","","","","","","","","","","","","","","","","","","","","","","","","","","","","","","","","","","","","","","","","20420","Durango, CO","FALSE","",""
"Deckers","Deckers","","CO","Colorado","08035","Douglas","08035","Douglas","39.2547","-105.2269","","","0.8","point","FALSE","FALSE","FALSE","FALSE","America/Denver","5","80135","1840044390","","","","","","","","","","","","","","","","","","","","","","","","","","","","","","","","","","","","","","","","","","","","","","","","","","","","","","","","","","","","","","","","19740","Denver-Aurora-Lakewood, CO","TRUE","216","Denver-Aurora, CO"
"Allison","Allison","","CO","Colorado","08067","La Plata","08067","La Plata","37.0244","-107.4881","","","26.5","point","FALSE","FALSE","FALSE","FALSE","America/Denver","4","81137","1840028540","","","","","","","","","","","","","","","","","","","","","","","","","","","","","","","","","","","","","","","","","","","","","","","","","","","","","","","","","","","","","","","","20420","Durango, CO","FALSE","",""
"Delhart","Delhart","","VA","Virginia","51077","Grayson","51077","Grayson","36.5815","-80.9851","","","25.7","point","FALSE","FALSE","FALSE","FALSE","America/New_York","4","24333","1840115936","","","","","","","","","","","","","","","","","","","","","","","","","","","","","","","","","","","","","","","","","","","","","","","","","","","","","","","","","","","","","","","","","","FALSE","",""
"Denniston","Denniston","","VA","Virginia","51083","Halifax","51083","Halifax","36.5707","-78.9397","","","14.0","point","FALSE","FALSE","FALSE","FALSE","America/New_York","4","24520","1840115939","","","","","","","","","","","","","","","","","","","","","","","","","","","","","","","","","","","","","","","","","","","","","","","","","","","","","","","","","","","","","","","","","","FALSE","",""
"Grays","Grays","","VA","Virginia","51169","Scott","51169","Scott","36.8001","-82.5024","","","5.0","point","FALSE","FALSE","FALSE","FALSE","America/New_York","5","24250","1840117695","","","","","","","","","","","","","","","","","","","","","","","","","","","","","","","","","","","","","","","","","","","","","","","","","","","","","","","","","","","","","","","","28700","Kingsport-Bristol, TN-VA","TRUE","304","Johnson City-Kingsport-Bristol, TN-VA"
"Davis","Davis","","VA","Virginia","51163","Rockbridge","51163","Rockbridge","37.9187","-79.2636","","","17.2","point","FALSE","FALSE","FALSE","FALSE","America/New_York","4","24472","1840115933","","","","","","","","","","","","","","","","","","","","","","","","","","","","","","","","","","","","","","","","","","","","","","","","","","","","","","","","","","","","","","","","44420","Staunton, VA","TRUE","277","Harrisonburg-Staunton, VA"
"Hendron","Hendron","","TN","Tennessee","47093","Knox","47093","Knox","35.9001","-83.8185","","","194.3","point","FALSE","FALSE","FALSE","FALSE","America/New_York","4","37920","1840129548","","","","","","","","","","","","","","","","","","","","","","","","","","","","","","","","","","","","","","","","","","","","","","","","","","","","","","","","","","","","","","","","28940","Knoxville, TN","TRUE","315","Knoxville-Morristown-Sevierville, TN"
"Stock Creek","Stock Creek","","TN","Tennessee","47093","Knox","47093","Knox","35.8720","-83.8932","","","39.4","point","FALSE","FALSE","FALSE","FALSE","America/New_York","4","37920","1840129551","","","","","","","","","","","","","","","","","","","","","","","","","","","","","","","","","","","","","","","","","","","","","","","","","","","","","","","","","","","","","","","","28940","Knoxville, TN","TRUE","315","Knoxville-Morristown-Sevierville, TN"
"Pine Ridge","Pine Ridge","","GA","Georgia","13169","Jones","13169","Jones","33.0229","-83.4891","","","34.6","point","FALSE","FALSE","FALSE","FALSE","America/New_York","4","31032","1840048585","","","","","","","","","","","","","","","","","","","","","","","","","","","","","","","","","","","","","","","","","","","","","","","","","","","","","","","","","","","","","","","","31420","Macon-Bibb County, GA","TRUE","356","Macon-Bibb County--Warner Robins, GA"
"Miracle","Miracle","","KY","Kentucky","21137","Lincoln","21137","Lincoln","37.4667","-84.6824","","","13.5","point","FALSE","FALSE","FALSE","FALSE","America/New_York","4","40484","1840148583","","","","","","","","","","","","","","","","","","","","","","","","","","","","","","","","","","","","","","","","","","","","","","","","","","","","","","","","","","","","","","","","19220","Danville, KY","FALSE","",""
"Milo","Milo","","KY","Kentucky","21159","Martin","21159","Martin","37.9165","-82.5768","","","68.5","point","FALSE","FALSE","FALSE","FALSE","America/New_York","4","41262","1840061869","","","","","","","","","","","","","","","","","","","","","","","","","","","","","","","","","","","","","","","","","","","","","","","","","","","","","","","","","","","","","","","","26580","Huntington-Ashland, WV-KY-OH","TRUE","170","Charleston-Huntington-Ashland, WV-OH-KY"
"Mima","Mima","","KY","Kentucky","21175","Morgan","21175","Morgan","37.9206","-83.0366","","","15.1","point","FALSE","FALSE","FALSE","FALSE","America/New_York","4","41472","1840061870","","","","","","","","","","","","","","","","","","","","","","","","","","","","","","","","","","","","","","","","","","","","","","","","","","","","","","","","","","","","","","","","26580","Huntington-Ashland, WV-KY-OH","TRUE","170","Charleston-Huntington-Ashland, WV-OH-KY"
"Mina","Mina","","KY","Kentucky","21049","Clark","21049","Clark","37.8626","-84.0671","","","15.8","point","FALSE","FALSE","FALSE","FALSE","America/New_York","4","40391","1840061871","","","","","","","","","","","","","","","","","","","","","","","","","","","","","","","","","","","","","","","","","","","","","","","","","","","","","","","","","","","","","","","","30460","Lexington-Fayette, KY","TRUE","336","Lexington-Fayette--Richmond--Frankfort, KY"
"Minefork","Minefork","","KY","Kentucky","21175","Morgan","21175","Morgan","37.8634","-83.0118","","","7.3","point","FALSE","FALSE","FALSE","FALSE","America/New_York","5","41472","1840061872","","","","","","","","","","","","","","","","","","","","","","","","","","","","","","","","","","","","","","","","","","","","","","","","","","","","","","","","","","","","","","","","26580","Huntington-Ashland, WV-KY-OH","TRUE","170","Charleston-Huntington-Ashland, WV-OH-KY"
"Mining City","Mining City","","KY","Kentucky","21031","Butler","21031","Butler","37.2273","-86.7789","","","3.9","point","FALSE","FALSE","FALSE","FALSE","America/Chicago","5","42261","1840061873","","","","","","","","","","","","","","","","","","","","","","","","","","","","","","","","","","","","","","","","","","","","","","","","","","","","","","","","","","","","","","","","14540","Bowling Green, KY","TRUE","150","Bowling Green-Glasgow, KY"
"Hawthorne","Hawthorne","","WI","Wisconsin","55031","Douglas","55031","Douglas","46.5030","-91.8607","","","20.0","point","FALSE","FALSE","FALSE","FALSE","America/Chicago","4","54842","1840123734","","","","","","","","","","","","","","","","","","","","","","","","","","","","","","","","","","","","","","","","","","","","","","","","","","","","","","","","","","","","","","","","20260","Duluth, MN-WI","TRUE","",""
"Shadigee","Shadigee","","NY","New York","36073","Orleans","36073","Orleans","43.3751","-78.3889","","","30.8","point","FALSE","FALSE","FALSE","FALSE","America/New_York","4","14098","1840085255","","","","","","","","","","","","","","","","","","","","","","","","","","","","","","","","","","","","","","","","","","","","","","","","","","","","","","","","","","","","","","","","","","FALSE","",""
"Carter","Carter","","SD","South Dakota","46123","Tripp","46123","Tripp","43.3872","-100.2026","","","0.7","point","FALSE","FALSE","FALSE","FALSE","America/Chicago","5","57580","1840030346","","","","","","","","","","","","","","","","","","","","","","","","","","","","","","","","","","","","","","","","","","","","","","","","","","","","","","","","","","","","","","","","","","FALSE","",""
"Bancroft","Bancroft","","KS","Kansas","20131","Nemaha","20131","Nemaha","39.6083","-95.9003","","","1.0","point","FALSE","FALSE","FALSE","FALSE","America/Chicago","5","66428","1840058600","","","","","","","","","","","","","","","","","","","","","","","","","","","","","","","","","","","","","","","","","","","","","","","","","","","","","","","","","","","","","","","","45820","Topeka, KS","TRUE","",""
"Peelers","Peelers","","MS","Mississippi","28149","Warren","28149","Warren","32.4915","-91.0468","","","3.9","point","FALSE","FALSE","FALSE","FALSE","America/Chicago","5","39183","1840074384","","","","","","","","","","","","","","","","","","","","","","","","","","","","","","","","","","","","","","","","","","","","","","","","","","","","","","","","","","","","","","","","46980","Vicksburg, MS","FALSE","298","Jackson-Vicksburg-Brookhaven, MS"
"Gutches Grove","Gutches Grove","","MN","Minnesota","27153","Todd","27153","Todd","45.9441","-94.9595","","","8.6","point","FALSE","FALSE","FALSE","FALSE","America/Chicago","5","56347","1840071433","","","","","","","","","","","","","","","","","","","","","","","","","","","","","","","","","","","","","","","","","","","","","","","","","","","","","","","","","","","","","","","","","","FALSE","",""
"Dairyland","Dairyland","","WI","Wisconsin","55031","Douglas","55031","Douglas","46.2161","-92.1555","","","1.2","point","FALSE","FALSE","FALSE","FALSE","America/Chicago","5","54830","1840123621","","","","","","","","","","","","","","","","","","","","","","","","","","","","","","","","","","","","","","","","","","","","","","","","","","","","","","","","","","","","","","","","20260","Duluth, MN-WI","TRUE","",""
"Dakota","Dakota","","WI","Wisconsin","55137","Waushara","55137","Waushara","43.9903","-89.3565","","","24.6","point","FALSE","FALSE","FALSE","FALSE","America/Chicago","4","54982","1840123622","","","","","","","","","","","","","","","","","","","","","","","","","","","","","","","","","","","","","","","","","","","","","","","","","","","","","","","","","","","","","","","","","","FALSE","",""
"Mexican Hat","Mexican Hat","","UT","Utah","49037","San Juan","49037","San Juan","37.1731","-109.8730","0","0","0.4","shape","FALSE","FALSE","TRUE","FALSE","America/Denver","3","84531","1840018874","","","","","","","","","","","","","","","","","","","","","","","","","","","","","","","","","","","","","0","","","","","","","","","","","","","","","","","","","","","","","","","","","","","FALSE","",""
"Hermitage","Hermitage","","UT","Utah","49057","Weber","49057","Weber","41.2508","-111.8819","","","42.2","point","FALSE","FALSE","FALSE","FALSE","America/Denver","4","84401","1840114573","","","","","","","","","","","","","","","","","","","","","","","","","","","","","","","","","","","","","","","","","","","","","","","","","","","","","","","","","","","","","","","","36260","Ogden-Clearfield, UT","TRUE","482","Salt Lake City-Provo-Orem, UT"
"South Haven","South Haven","","MD","Maryland","24003","Anne Arundel","24003","Anne Arundel","38.9632","-76.5825","","","483.8","point","FALSE","FALSE","FALSE","FALSE","America/New_York","4","21401","1840067975","","","","","","","","","","","","","","","","","","","","","","","","","","","","","","","","","","","","","","","","","","","","","","","","","","","","","","","","","","","","","","","","12580","Baltimore-Columbia-Towson, MD","TRUE","548","Washington-Baltimore-Arlington, DC-MD-VA-WV-PA"
"Circle City","Circle City","","MO","Missouri","29207","Stoddard","29207","Stoddard","36.8567","-89.8023","","","39.0","point","FALSE","FALSE","FALSE","FALSE","America/Chicago","4","63846","1840075621","","","","","","","","","","","","","","","","","","","","","","","","","","","","","","","","","","","","","","","","","","","","","","","","","","","","","","","","","","","","","","","","","","FALSE","",""
"Sampson","Sampson","","WI","Wisconsin","55083","Oconto","55083","Oconto","44.7650","-88.1862","","","16.4","point","FALSE","FALSE","FALSE","FALSE","America/Chicago","4","54171","1840124088","","","","","","","","","","","","","","","","","","","","","","","","","","","","","","","","","","","","","","","","","","","","","","","","","","","","","","","","","","","","","","","","24580","Green Bay, WI","TRUE","267","Green Bay-Shawano, WI"
"Solley","Solley","","MD","Maryland","24003","Anne Arundel","24003","Anne Arundel","39.1709","-76.5544","","","74.1","point","FALSE","FALSE","FALSE","FALSE","America/New_York","4","21060","1840067971","","","","","","","","","","","","","","","","","","","","","","","","","","","","","","","","","","","","","","","","","","","","","","","","","","","","","","","","","","","","","","","","12580","Baltimore-Columbia-Towson, MD","TRUE","548","Washington-Baltimore-Arlington, DC-MD-VA-WV-PA"
"Sollers","Sollers","","MD","Maryland","24009","Calvert","24009","Calvert","38.3885","-76.4925","","","204.9","point","FALSE","FALSE","FALSE","FALSE","America/New_York","4","20657","1840067970","","","","","","","","","","","","","","","","","","","","","","","","","","","","","","","","","","","","","","","","","","","","","","","","","","","","","","","","","","","","","","","","15680","California-Lexington Park, MD","TRUE","548","Washington-Baltimore-Arlington, DC-MD-VA-WV-PA"
"Sniders Estates","Sniders Estates","","MD","Maryland","24031","Montgomery","24031","Montgomery","39.1123","-76.9914","","","661.7","point","FALSE","FALSE","FALSE","FALSE","America/New_York","4","20905","1840067968","","","","","","","","","","","","","","","","","","","","","","","","","","","","","","","","","","","","","","","","","","","","","","","","","","","","","","","","","","","","","","","","47900","Washington-Arlington-Alexandria, DC-VA-MD-WV","TRUE","548","Washington-Baltimore-Arlington, DC-MD-VA-WV-PA"
"Sonoma","Sonoma","","MD","Maryland","24031","Montgomery","24031","Montgomery","39.0012","-77.1136","","","2154.5","point","FALSE","FALSE","FALSE","FALSE","America/New_York","4","20817","1840067973","","","","","","","","","","","","","","","","","","","","","","","","","","","","","","","","","","","","","","","","","","","","","","","","","","","","","","","","","","","","","","","","47900","Washington-Arlington-Alexandria, DC-VA-MD-WV","TRUE","548","Washington-Baltimore-Arlington, DC-MD-VA-WV-PA"
"Somerset Heights","Somerset Heights","","MD","Maryland","24031","Montgomery","24031","Montgomery","38.9690","-77.0947","","","2320.7","point","FALSE","FALSE","FALSE","FALSE","America/New_York","4","20815","1840067972","","","","","","","","","","","","","","","","","","","","","","","","","","","","","","","","","","","","","","","","","","","","","","","","","","","","","","","","","","","","","","","","47900","Washington-Arlington-Alexandria, DC-VA-MD-WV","TRUE","548","Washington-Baltimore-Arlington, DC-MD-VA-WV-PA"
"Burke Center","Burke Center","","NY","New York","36033","Franklin","36033","Franklin","44.9189","-74.1796","","","33.6","point","FALSE","FALSE","FALSE","FALSE","America/New_York","4","12917","1840083150","","","","","","","","","","","","","","","","","","","","","","","","","","","","","","","","","","","","","","","","","","","","","","","","","","","","","","","","","","","","","","","","31660","Malone, NY","FALSE","",""
"Burk Hill","Burk Hill","","NY","New York","36121","Wyoming","36121","Wyoming","42.7781","-78.0261","","","19.2","point","FALSE","FALSE","FALSE","FALSE","America/New_York","4","14530","1840083149","","","","","","","","","","","","","","","","","","","","","","","","","","","","","","","","","","","","","","","","","","","","","","","","","","","","","","","","","","","","","","","","40380","Rochester, NY","TRUE","464","Rochester-Batavia-Seneca Falls, NY"
"Meadville","Meadville","","WV","West Virginia","54095","Tyler","54095","Tyler","39.4087","-81.0029","","","20.5","point","FALSE","FALSE","FALSE","FALSE","America/New_York","4","26146","1840121089","","","","","","","","","","","","","","","","","","","","","","","","","","","","","","","","","","","","","","","","","","","","","","","","","","","","","","","","","","","","","","","","","","FALSE","",""
"To","Tio","","PR","Puerto Rico","72021","Bayamn","72021","Bayamn","18.3702","-66.1752","","","2274.5","point","FALSE","FALSE","FALSE","FALSE","America/Puerto_Rico","4","00956","1630126851","","","","","","","","","","","","","","","","","","","","","","","","","","","","","","","","","","","","","","","","","","","","","","","","","","","","","","","","","","","","","","","","41980","San Juan-Bayamn-Caguas, PR","TRUE","490","San Juan-Bayamn, PR"
"Lake Victor","Lake Victor","","TX","Texas","48053","Burnet","48053","Burnet","30.9091","-98.1934","","","18.3","point","FALSE","FALSE","FALSE","FALSE","America/Chicago","4","76550","1840112729","","","","","","","","","","","","","","","","","","","","","","","","","","","","","","","","","","","","","","","","","","","","","","","","","","","","","","","","","","","","","","","","28660","Killeen-Temple, TX","TRUE","",""
"Side Lake","Side Lake","","MN","Minnesota","27137","St. Louis","27137","St. Louis","47.6652","-93.0157","","","34.0","point","FALSE","FALSE","FALSE","FALSE","America/Chicago","4","55781","1840072141","","","","","","","","","","","","","","","","","","","","","","","","","","","","","","","","","","","","","","","","","","","","","","","","","","","","","","","","","","","","","","","","20260","Duluth, MN-WI","TRUE","",""
"Blue Mountain Beach","Blue Mountain Beach","","FL","Florida","12131","Walton","12131","Walton","30.3374","-86.1972","","","157.0","point","FALSE","FALSE","FALSE","FALSE","America/Chicago","4","32459","1840028637","","","","","","","","","","","","","","","","","","","","","","","","","","","","","","","","","","","","","","","","","","","","","","","","","","","","","","","","","","","","","","","","18880","Crestview-Fort Walton Beach-Destin, FL","TRUE","",""
"Wildwood","Wildwood","","NC","North Carolina","37031","Carteret","37031","Carteret","34.7488","-76.8258","","","242.5","point","FALSE","FALSE","FALSE","FALSE","America/New_York","4","28570","1840089320","","","","","","","","","","","","","","","","","","","","","","","","","","","","","","","","","","","","","","","","","","","","","","","","","","","","","","","","","","","","","","","","33980","Morehead City, NC","FALSE","404","New Bern-Morehead City, NC"
"Everett","Everett","","NJ","New Jersey","34025","Monmouth","34025","Monmouth","40.3543","-74.1465","","","168.6","point","FALSE","FALSE","FALSE","FALSE","America/New_York","4","07738","1840033270","","","","","","","","","","","","","","","","","","","","","","","","","","","","","","","","","","","","","","","","","","","","","","","","","","","","","","","","","","","","","","","","35620","New York-Newark-Jersey City, NY-NJ-PA","TRUE","408","New York-Newark, NY-NJ-CT-PA"
"Kingston","Kingston","","VA","Virginia","51031","Campbell","51031","Campbell","37.2082","-79.2017","","","51.4","point","FALSE","FALSE","FALSE","FALSE","America/New_York","4","24550","1840117124","","","","","","","","","","","","","","","","","","","","","","","","","","","","","","","","","","","","","","","","","","","","","","","","","","","","","","","","","","","","","","","","31340","Lynchburg, VA","TRUE","",""
"Saint Johns","Saint Johns","","NC","North Carolina","37041","Chowan","37041","Chowan","36.0307","-76.5266","","","14.8","point","FALSE","FALSE","FALSE","FALSE","America/New_York","4","27932","1840088686","","","","","","","","","","","","","","","","","","","","","","","","","","","","","","","","","","","","","","","","","","","","","","","","","","","","","","","","","","","","","","","","","","FALSE","",""
"Kentuck","Kentuck","","VA","Virginia","51143","Pittsylvania","51143","Pittsylvania","36.6599","-79.2984","","","39.2","point","FALSE","FALSE","FALSE","FALSE","America/New_York","4","24586","1840117119","","","","","","","","","","","","","","","","","","","","","","","","","","","","","","","","","","","","","","","","","","","","","","","","","","","","","","","","","","","","","","","","19260","Danville, VA","FALSE","",""
"Kendall Grove","Kendall Grove","","VA","Virginia","51131","Northampton","51131","Northampton","37.3679","-75.9210","","","21.7","point","FALSE","FALSE","FALSE","FALSE","America/New_York","4","23310","1840117118","","","","","","","","","","","","","","","","","","","","","","","","","","","","","","","","","","","","","","","","","","","","","","","","","","","","","","","","","","","","","","","","47260","Virginia Beach-Norfolk-Newport News, VA-NC","TRUE","545","Virginia Beach-Norfolk, VA-NC"
"Kermit","Kermit","","VA","Virginia","51169","Scott","51169","Scott","36.6254","-82.7204","","","27.1","point","FALSE","FALSE","FALSE","FALSE","America/New_York","4","24251","1840117121","","","","","","","","","","","","","","","","","","","","","","","","","","","","","","","","","","","","","","","","","","","","","","","","","","","","","","","","","","","","","","","","28700","Kingsport-Bristol, TN-VA","TRUE","304","Johnson City-Kingsport-Bristol, TN-VA"
"Kenwood","Kenwood","","VA","Virginia","51059","Fairfax","51059","Fairfax","38.8387","-77.1941","","","3064.3","point","FALSE","FALSE","FALSE","FALSE","America/New_York","4","22003","1840117120","","","","","","","","","","","","","","","","","","","","","","","","","","","","","","","","","","","","","","","","","","","","","","","","","","","","","","","","","","","","","","","","47900","Washington-Arlington-Alexandria, DC-VA-MD-WV","TRUE","548","Washington-Baltimore-Arlington, DC-MD-VA-WV-PA"
"Key West","Key West","","VA","Virginia","51003","Albemarle","51003","Albemarle","38.0574","-78.4408","","","163.8","point","FALSE","FALSE","FALSE","FALSE","America/New_York","4","22911","1840117122","","","","","","","","","","","","","","","","","","","","","","","","","","","","","","","","","","","","","","","","","","","","","","","","","","","","","","","","","","","","","","","","16820","Charlottesville, VA","TRUE","",""
"Kincer Mill","Kincer Mill","","VA","Virginia","51105","Lee","51105","Lee","36.6345","-83.1060","","","6.4","point","FALSE","FALSE","FALSE","FALSE","America/New_York","5","24263","1840117123","","","","","","","","","","","","","","","","","","","","","","","","","","","","","","","","","","","","","","","","","","","","","","","","","","","","","","","","","","","","","","","","28700","Kingsport-Bristol, TN-VA","TRUE","304","Johnson City-Kingsport-Bristol, TN-VA"
"Wolf Run","Wolf Run","","PA","Pennsylvania","42083","McKean","42083","McKean","41.8715","-78.5459","","","35.3","point","FALSE","FALSE","FALSE","FALSE","America/New_York","4","16749","1840102030","","","","","","","","","","","","","","","","","","","","","","","","","","","","","","","","","","","","","","","","","","","","","","","","","","","","","","","","","","","","","","","","14620","Bradford, PA","FALSE","",""
"Hewlett","Hewlett","","VA","Virginia","51085","Hanover","51085","Hanover","37.9224","-77.5764","","","22.4","point","FALSE","FALSE","FALSE","FALSE","America/New_York","4","22546","1840037309","","","","","","","","","","","","","","","","","","","","","","","","","","","","","","","","","","","","","","","","","","","","","","","","","","","","","","","","","","","","","","","","40060","Richmond, VA","TRUE","",""
"Ravensworth Grove","Ravensworth Grove","","VA","Virginia","51059","Fairfax","51059","Fairfax","38.8179","-77.2144","","","2853.0","point","FALSE","FALSE","FALSE","FALSE","America/New_York","4","22003","1840117307","","","","","","","","","","","","","","","","","","","","","","","","","","","","","","","","","","","","","","","","","","","","","","","","","","","","","","","","","","","","","","","","47900","Washington-Arlington-Alexandria, DC-VA-MD-WV","TRUE","548","Washington-Baltimore-Arlington, DC-MD-VA-WV-PA"
