"city","city_ascii","city_alt","state_id","state_name","county_fips","county_name","county_fips_all","county_name_all","lat","lng","population","population_proper","density","source","military","incorporated","cdp","township","timezone","ranking","zips","id","age_median","age_under_10","age_10_to_19","age_20s","age_30s","age_40s","age_50s","age_60s","age_70s","age_over_80","age_over_65","age_18_to_24","age_over_18","male","female","married","divorced","never_married","widowed","family_size","family_dual_income","income_household_median","income_household_under_5","income_household_5_to_10","income_household_10_to_15","income_household_15_to_20","income_household_20_to_25","income_household_25_to_35","income_household_35_to_50","income_household_50_to_75","income_household_75_to_100","income_household_100_to_150","income_household_150_over","income_household_six_figure","income_individual_median","home_ownership","housing_units","home_value","rent_median","rent_burden","education_less_highschool","education_highschool","education_some_college","education_bachelors","education_graduate","education_college_or_above","education_stem_degree","labor_force_participation","unemployment_rate","race_white","race_black","race_asian","race_native","race_pacific","race_other","race_multiple","hispanic","disabled","poverty","limited_english","commute_time","health_uninsured","veteran","cbsa_fips","cbsa_name","cbsa_metro","csa_fips","csa_name"
"Chartley","Chartley","","MD","Maryland","24005","Baltimore","24005","Baltimore","39.4595","-76.8125","","","3327.3","point","FALSE","FALSE","FALSE","FALSE","America/New_York","4","21136","1840068230","","","","","","","","","","","","","","","","","","","","","","","","","","","","","","","","","","","","","","","","","","","","","","","","","","","","","","","","","","","","","","","","12580","Baltimore-Columbia-Towson, MD","TRUE","548","Washington-Baltimore-Arlington, DC-MD-VA-WV-PA"
"Crystal Springs","Crystal Springs","","OH","Ohio","39151","Stark","39151","Stark","40.8492","-81.5343","","","125.1","point","FALSE","FALSE","FALSE","FALSE","America/New_York","4","44614","1840095015","","","","","","","","","","","","","","","","","","","","","","","","","","","","","","","","","","","","","","","","","","","","","","","","","","","","","","","","","","","","","","","","15940","Canton-Massillon, OH","TRUE","184","Cleveland-Akron-Canton, OH"
"Essex","Essex","","OH","Ohio","39159","Union","39159","Union","40.4826","-83.3158","","","75.8","point","FALSE","FALSE","FALSE","FALSE","America/New_York","4","43344","1840095016","","","","","","","","","","","","","","","","","","","","","","","","","","","","","","","","","","","","","","","","","","","","","","","","","","","","","","","","","","","","","","","","18140","Columbus, OH","TRUE","198","Columbus-Marion-Zanesville, OH"
"Ramsey Flats","Ramsey Flats","","VA","Virginia","51051","Dickenson","51051","Dickenson","37.2048","-82.4515","","","13.3","point","FALSE","FALSE","FALSE","FALSE","America/New_York","4","24228","1840117306","","","","","","","","","","","","","","","","","","","","","","","","","","","","","","","","","","","","","","","","","","","","","","","","","","","","","","","","","","","","","","","","","","FALSE","",""
"Purcell","Purcell","","VA","Virginia","51167","Russell","51167","Russell","36.9307","-82.1351","","","63.1","point","FALSE","FALSE","FALSE","FALSE","America/New_York","4","24225","1840117303","","","","","","","","","","","","","","","","","","","","","","","","","","","","","","","","","","","","","","","","","","","","","","","","","","","","","","","","","","","","","","","","","","FALSE","",""
"Pyletown","Pyletown","","VA","Virginia","51043","Clarke","51043","Clarke","39.1057","-78.0431","","","11.5","point","FALSE","FALSE","FALSE","FALSE","America/New_York","4","22620","1840117304","","","","","","","","","","","","","","","","","","","","","","","","","","","","","","","","","","","","","","","","","","","","","","","","","","","","","","","","","","","","","","","","47900","Washington-Arlington-Alexandria, DC-VA-MD-WV","TRUE","548","Washington-Baltimore-Arlington, DC-MD-VA-WV-PA"
"Raleigh Place","Raleigh Place","","VA","Virginia","51550","Chesapeake","51550","Chesapeake","36.8085","-76.4069","","","978.8","point","FALSE","FALSE","FALSE","FALSE","America/New_York","4","23321","1840117305","","","","","","","","","","","","","","","","","","","","","","","","","","","","","","","","","","","","","","","","","","","","","","","","","","","","","","","","","","","","","","","","47260","Virginia Beach-Norfolk-Newport News, VA-NC","TRUE","545","Virginia Beach-Norfolk, VA-NC"
"Double Adobe","Double Adobe","","AZ","Arizona","04003","Cochise","04003","Cochise","31.4668","-109.6901","","","21.7","point","FALSE","FALSE","FALSE","FALSE","America/Phoenix","4","85617","1840027861","","","","","","","","","","","","","","","","","","","","","","","","","","","","","","","","","","","","","","","","","","","","","","","","","","","","","","","","","","","","","","","","43420","Sierra Vista-Douglas, AZ","TRUE","",""
"Maple Ridge","Maple Ridge","","IN","Indiana","18097","Marion","18097","Marion","39.6781","-86.2861","","","584.6","point","FALSE","FALSE","FALSE","FALSE","America/Indiana/Indianapolis","4","46221","1840055117","","","","","","","","","","","","","","","","","","","","","","","","","","","","","","","","","","","","","","","","","","","","","","","","","","","","","","","","","","","","","","","","26900","Indianapolis-Carmel-Anderson, IN","TRUE","294","Indianapolis-Carmel-Muncie, IN"
"Paradise","Paradise","","WA","Washington","53053","Pierce","53053","Pierce","46.7862","-121.7354","","","0.0","point","FALSE","FALSE","FALSE","FALSE","America/Los_Angeles","5","98304","1840120749","","","","","","","","","","","","","","","","","","","","","","","","","","","","","","","","","","","","","","","","","","","","","","","","","","","","","","","","","","","","","","","","42660","Seattle-Tacoma-Bellevue, WA","TRUE","500","Seattle-Tacoma, WA"
"Terre Coupee","Terre Coupee","","IN","Indiana","18141","St. Joseph","18141","St. Joseph","41.7023","-86.4772","","","26.9","point","FALSE","FALSE","FALSE","FALSE","America/Indiana/Indianapolis","4","46552","1840056234","","","","","","","","","","","","","","","","","","","","","","","","","","","","","","","","","","","","","","","","","","","","","","","","","","","","","","","","","","","","","","","","43780","South Bend-Mishawaka, IN-MI","TRUE","515","South Bend-Elkhart-Mishawaka, IN-MI"
"Fairfiled","Fairfiled","","PA","Pennsylvania","42071","Lancaster","42071","Lancaster","39.7848","-76.2244","","","129.4","point","FALSE","FALSE","FALSE","FALSE","America/New_York","4","17563","1840099265","","","","","","","","","","","","","","","","","","","","","","","","","","","","","","","","","","","","","","","","","","","","","","","","","","","","","","","","","","","","","","","","29540","Lancaster, PA","TRUE","",""
"Carroll Highlands","Carroll Highlands","","MD","Maryland","24013","Carroll","24013","Carroll","39.3873","-76.9172","","","1074.2","point","FALSE","FALSE","FALSE","FALSE","America/New_York","4","21784","1840131520","","","","","","","","","","","","","","","","","","","","","","","","","","","","","","","","","","","","","","","","","","","","","","","","","","","","","","","","","","","","","","","","12580","Baltimore-Columbia-Towson, MD","TRUE","548","Washington-Baltimore-Arlington, DC-MD-VA-WV-PA"
"Gray","Gray","","ID","Idaho","16019","Bonneville","16019","Bonneville","43.0499","-111.3791","","","0.1","point","FALSE","FALSE","FALSE","FALSE","America/Boise","5","83285","1840023679","","","","","","","","","","","","","","","","","","","","","","","","","","","","","","","","","","","","","","","","","","","","","","","","","","","","","","","","","","","","","","","","26820","Idaho Falls, ID","TRUE","292","Idaho Falls-Rexburg-Blackfoot, ID"
"South Piscataway","South Piscataway","","MD","Maryland","24033","Prince George's","24033","Prince George's","38.6859","-76.9803","","","229.7","point","FALSE","FALSE","FALSE","FALSE","America/New_York","4","20607","1840068546","","","","","","","","","","","","","","","","","","","","","","","","","","","","","","","","","","","","","","","","","","","","","","","","","","","","","","","","","","","","","","","","47900","Washington-Arlington-Alexandria, DC-VA-MD-WV","TRUE","548","Washington-Baltimore-Arlington, DC-MD-VA-WV-PA"
"Gruenau","Gruenau","","TX","Texas","48123","DeWitt","48123","DeWitt","29.0708","-97.5675","","","0.8","point","FALSE","FALSE","FALSE","FALSE","America/Chicago","5","78164","1840113646","","","","","","","","","","","","","","","","","","","","","","","","","","","","","","","","","","","","","","","","","","","","","","","","","","","","","","","","","","","","","","","","47020","Victoria, TX","TRUE","544","Victoria-Port Lavaca, TX"
"Grow","Grow","","TX","Texas","48269","King","48269","King","33.8098","-100.2987","","","0.1","point","FALSE","FALSE","FALSE","FALSE","America/Chicago","5","79248","1840113645","","","","","","","","","","","","","","","","","","","","","","","","","","","","","","","","","","","","","","","","","","","","","","","","","","","","","","","","","","","","","","","","","","FALSE","",""
"Gruhlkey","Gruhlkey","","TX","Texas","48359","Oldham","48359","Oldham","35.2653","-102.7441","","","0.1","point","FALSE","FALSE","FALSE","FALSE","America/Chicago","5","79001","1840033111","","","","","","","","","","","","","","","","","","","","","","","","","","","","","","","","","","","","","","","","","","","","","","","","","","","","","","","","","","","","","","","","11100","Amarillo, TX","TRUE","108","Amarillo-Pampa-Borger, TX"
"Meco","Meco","","NY","New York","36035","Fulton","36035","Fulton","43.0559","-74.3824","","","122.3","point","FALSE","FALSE","FALSE","FALSE","America/New_York","4","12078","1840084532","","","","","","","","","","","","","","","","","","","","","","","","","","","","","","","","","","","","","","","","","","","","","","","","","","","","","","","","","","","","","","","","24100","Gloversville, NY","FALSE","104","Albany-Schenectady, NY"
"Eastedge","Eastedge","","ND","North Dakota","38003","Barnes","38003","Barnes","46.6566","-97.8923","","","0.6","point","FALSE","FALSE","FALSE","FALSE","America/Chicago","5","58049","1840091236","","","","","","","","","","","","","","","","","","","","","","","","","","","","","","","","","","","","","","","","","","","","","","","","","","","","","","","","","","","","","","","","","","FALSE","",""
"Seeshore","Seeshore","","NC","North Carolina","37175","Transylvania","37175","Transylvania","35.1529","-82.7035","","","27.4","point","FALSE","FALSE","FALSE","FALSE","America/New_York","4","28712","1840090558","","","","","","","","","","","","","","","","","","","","","","","","","","","","","","","","","","","","","","","","","","","","","","","","","","","","","","","","","","","","","","","","14820","Brevard, NC","FALSE","120","Asheville-Marion-Brevard, NC"
"Athol Springs","Athol Springs","","NY","New York","36029","Erie","36029","Erie","42.7698","-78.8664","","","353.7","point","FALSE","FALSE","FALSE","FALSE","America/New_York","4","14075","1840033843","","","","","","","","","","","","","","","","","","","","","","","","","","","","","","","","","","","","","","","","","","","","","","","","","","","","","","","","","","","","","","","","15380","Buffalo-Cheektowaga, NY","TRUE","160","Buffalo-Cheektowaga-Olean, NY"
"Warren Station","Warren Station","","ME","Maine","23013","Knox","23013","Knox","44.1101","-69.2773","","","23.7","point","FALSE","FALSE","FALSE","FALSE","America/New_York","4","04864","1840065509","","","","","","","","","","","","","","","","","","","","","","","","","","","","","","","","","","","","","","","","","","","","","","","","","","","","","","","","","","","","","","","","","","FALSE","",""
"Port Orange","Port Orange","","NY","New York","36071","Orange","36071","Orange","41.4868","-74.5752","","","33.7","point","FALSE","FALSE","FALSE","FALSE","America/New_York","4","12729","1840086674","","","","","","","","","","","","","","","","","","","","","","","","","","","","","","","","","","","","","","","","","","","","","","","","","","","","","","","","","","","","","","","","39100","Poughkeepsie-Newburgh-Middletown, NY","TRUE","408","New York-Newark, NY-NJ-CT-PA"
"Porcaville","Porcaville","","NY","New York","36033","Franklin","36033","Franklin","44.6834","-74.1865","","","40.4","point","FALSE","FALSE","FALSE","FALSE","America/New_York","4","12969","1840086673","","","","","","","","","","","","","","","","","","","","","","","","","","","","","","","","","","","","","","","","","","","","","","","","","","","","","","","","","","","","","","","","31660","Malone, NY","FALSE","",""
"Potterville","Potterville","","NY","New York","36111","Ulster","36111","Ulster","41.8320","-74.3774","","","0.6","point","FALSE","FALSE","FALSE","FALSE","America/New_York","5","12446","1840086677","","","","","","","","","","","","","","","","","","","","","","","","","","","","","","","","","","","","","","","","","","","","","","","","","","","","","","","","","","","","","","","","28740","Kingston, NY","TRUE","408","New York-Newark, NY-NJ-CT-PA"
"Wicomico","Wicomico","","VA","Virginia","51073","Gloucester","51073","Gloucester","37.2910","-76.5094","","","655.7","point","FALSE","FALSE","FALSE","FALSE","America/New_York","4","23072","1840115774","","","","","","","","","","","","","","","","","","","","","","","","","","","","","","","","","","","","","","","","","","","","","","","","","","","","","","","","","","","","","","","","47260","Virginia Beach-Norfolk-Newport News, VA-NC","TRUE","545","Virginia Beach-Norfolk, VA-NC"
"Prattham","Prattham","","NY","New York","36075","Oswego","36075","Oswego","43.4562","-76.1799","","","61.6","point","FALSE","FALSE","FALSE","FALSE","America/New_York","4","13114","1840086678","","","","","","","","","","","","","","","","","","","","","","","","","","","","","","","","","","","","","","","","","","","","","","","","","","","","","","","","","","","","","","","","45060","Syracuse, NY","TRUE","532","Syracuse-Auburn, NY"
"Bayouville","Bayouville","","MO","Missouri","29143","New Madrid","29143","New Madrid","36.6512","-89.3642","","","0.3","point","FALSE","FALSE","FALSE","FALSE","America/Chicago","5","63845","1840076496","","","","","","","","","","","","","","","","","","","","","","","","","","","","","","","","","","","","","","","","","","","","","","","","","","","","","","","","","","","","","","","","","","FALSE","",""
"Summer Haven","Summer Haven","","FL","Florida","12109","St. Johns","12109","St. Johns","29.6991","-81.2234","","","289.6","point","FALSE","FALSE","FALSE","FALSE","America/New_York","4","32080","1840028961","","","","","","","","","","","","","","","","","","","","","","","","","","","","","","","","","","","","","","","","","","","","","","","","","","","","","","","","","","","","","","","","27260","Jacksonville, FL","TRUE","300","Jacksonville-St. Marys-Palatka, FL-GA"
"Sunland Gardens","Sunland Gardens","","FL","Florida","12111","St. Lucie","12111","St. Lucie","27.4628","-80.3620","","","1628.8","point","FALSE","FALSE","FALSE","FALSE","America/New_York","4","34947","1840047982","","","","","","","","","","","","","","","","","","","","","","","","","","","","","","","","","","","","","","","","","","","","","","","","","","","","","","","","","","","","","","","","38940","Port St. Lucie, FL","TRUE","370","Miami-Port St. Lucie-Fort Lauderdale, FL"
"Tocoi","Tocoi","","FL","Florida","12109","St. Johns","12109","St. Johns","29.8450","-81.5579","","","21.9","point","FALSE","FALSE","FALSE","FALSE","America/New_York","4","32092","1840047984","","","","","","","","","","","","","","","","","","","","","","","","","","","","","","","","","","","","","","","","","","","","","","","","","","","","","","","","","","","","","","","","27260","Jacksonville, FL","TRUE","300","Jacksonville-St. Marys-Palatka, FL-GA"
"Pankeyville","Pankeyville","","IL","Illinois","17165","Saline","17165","Saline","37.7084","-88.5362","","","76.5","point","FALSE","FALSE","FALSE","FALSE","America/Chicago","4","62946","1840051517","","","","","","","","","","","","","","","","","","","","","","","","","","","","","","","","","","","","","","","","","","","","","","","","","","","","","","","","","","","","","","","","","","FALSE","",""
"Genery","Genery","","AL","Alabama","01073","Jefferson","01073","Jefferson","33.3087","-86.9039","","","236.6","point","FALSE","FALSE","FALSE","FALSE","America/Chicago","4","35022","1840041175","","","","","","","","","","","","","","","","","","","","","","","","","","","","","","","","","","","","","","","","","","","","","","","","","","","","","","","","","","","","","","","","13820","Birmingham-Hoover, AL","TRUE","142","Birmingham-Hoover-Talladega, AL"
"Atwood","Atwood","","KY","Kentucky","21117","Kenton","21117","Kenton","38.8723","-84.5383","","","45.3","point","FALSE","FALSE","FALSE","FALSE","America/New_York","4","41063","1840059912","","","","","","","","","","","","","","","","","","","","","","","","","","","","","","","","","","","","","","","","","","","","","","","","","","","","","","","","","","","","","","","","17140","Cincinnati, OH-KY-IN","TRUE","178","Cincinnati-Wilmington-Maysville, OH-KY-IN"
"Chatham","Chatham","","MD","Maryland","24033","Prince George's","24033","Prince George's","38.9871","-76.9589","","","980.3","point","FALSE","FALSE","FALSE","FALSE","America/New_York","4","20783","1840068413","","","","","","","","","","","","","","","","","","","","","","","","","","","","","","","","","","","","","","","","","","","","","","","","","","","","","","","","","","","","","","","","47900","Washington-Arlington-Alexandria, DC-VA-MD-WV","TRUE","548","Washington-Baltimore-Arlington, DC-MD-VA-WV-PA"
"Cheltenham","Cheltenham","","MD","Maryland","24033","Prince George's","24033","Prince George's","38.7357","-76.8264","","","474.8","point","FALSE","FALSE","FALSE","FALSE","America/New_York","4","20623","1840031447","","","","","","","","","","","","","","","","","","","","","","","","","","","","","","","","","","","","","","","","","","","","","","","","","","","","","","","","","","","","","","","","47900","Washington-Arlington-Alexandria, DC-VA-MD-WV","TRUE","548","Washington-Baltimore-Arlington, DC-MD-VA-WV-PA"
"Swisshome","Swisshome","","OR","Oregon","41039","Lane","41039","Lane","44.0579","-123.7993","","","42.7","point","FALSE","FALSE","FALSE","FALSE","America/Los_Angeles","4","97480","1840034802","","","","","","","","","","","","","","","","","","","","","","","","","","","","","","","","","","","","","","","","","","","","","","","","","","","","","","","","","","","","","","","","21660","Eugene-Springfield, OR","TRUE","",""
"Polk Springs","Polk Springs","","CA","California","06103","Tehama","06103","Tehama","40.1171","-121.6653","","","0.0","point","FALSE","FALSE","FALSE","FALSE","America/Los_Angeles","5","95942","1840046460","","","","","","","","","","","","","","","","","","","","","","","","","","","","","","","","","","","","","","","","","","","","","","","","","","","","","","","","","","","","","","","","39780","Red Bluff, CA","FALSE","454","Redding-Red Bluff, CA"
"Ringville","Ringville","","MA","Massachusetts","25015","Hampshire","25015","Hampshire","42.3695","-72.9098","","","32.8","point","FALSE","FALSE","FALSE","FALSE","America/New_York","4","01098","1840068764","","","","","","","","","","","","","","","","","","","","","","","","","","","","","","","","","","","","","","","","","","","","","","","","","","","","","","","","","","","","","","","","44140","Springfield, MA","TRUE","",""
"Venetie Landing","Venetie Landing","","AK","Alaska","02290","Yukon-Koyukuk","02290","Yukon-Koyukuk","66.6106","-145.9922","","","0.0","point","FALSE","FALSE","FALSE","FALSE","America/Anchorage","5","99781","1840114266","","","","","","","","","","","","","","","","","","","","","","","","","","","","","","","","","","","","","","","","","","","","","","","","","","","","","","","","","","","","","","","","","","FALSE","",""
"Sollitt","Sollitt","","IL","Illinois","17091","Kankakee","17091","Kankakee","41.2934","-87.6348","","","43.6","point","FALSE","FALSE","FALSE","FALSE","America/Chicago","4","60401","1840051646","","","","","","","","","","","","","","","","","","","","","","","","","","","","","","","","","","","","","","","","","","","","","","","","","","","","","","","","","","","","","","","","16980","Chicago-Naperville-Elgin, IL-IN-WI","TRUE","176","Chicago-Naperville, IL-IN-WI"
"Basom","Basom","","NY","New York","36037","Genesee","36037","Genesee","43.0673","-78.3914","","","43.3","point","FALSE","FALSE","FALSE","FALSE","America/New_York","4","14013","1840082979","","","","","","","","","","","","","","","","","","","","","","","","","","","","","","","","","","","","","","","","","","","","","","","","","","","","","","","","","","","","","","","","12860","Batavia, NY","FALSE","464","Rochester-Batavia-Seneca Falls, NY"
"Windsor Park","Windsor Park","","NJ","New Jersey","34007","Camden","34007","Camden","39.9284","-75.0088","","","2018.9","point","FALSE","FALSE","FALSE","FALSE","America/New_York","4","08002","1840081989","","","","","","","","","","","","","","","","","","","","","","","","","","","","","","","","","","","","","","","","","","","","","","","","","","","","","","","","","","","","","","","","37980","Philadelphia-Camden-Wilmington, PA-NJ-DE-MD","TRUE","428","Philadelphia-Reading-Camden, PA-NJ-DE-MD"
"Locustwood","Locustwood","","NJ","New Jersey","34007","Camden","34007","Camden","39.9243","-75.0282","","","676.5","point","FALSE","FALSE","FALSE","FALSE","America/New_York","4","08002","1840081990","","","","","","","","","","","","","","","","","","","","","","","","","","","","","","","","","","","","","","","","","","","","","","","","","","","","","","","","","","","","","","","","37980","Philadelphia-Camden-Wilmington, PA-NJ-DE-MD","TRUE","428","Philadelphia-Reading-Camden, PA-NJ-DE-MD"
"Melville","Melville","","IL","Illinois","17119","Madison","17119","Madison","38.9370","-90.2459","","","220.7","point","FALSE","FALSE","FALSE","FALSE","America/Chicago","4","62035","1840052346","","","","","","","","","","","","","","","","","","","","","","","","","","","","","","","","","","","","","","","","","","","","","","","","","","","","","","","","","","","","","","","","41180","St. Louis, MO-IL","TRUE","476","St. Louis-St. Charles-Farmington, MO-IL"
"Melwood","Melwood","","IL","Illinois","17045","Edgar","17045","Edgar","39.7617","-87.8636","","","0.0","point","FALSE","FALSE","FALSE","FALSE","America/Chicago","5","61917","1840052347","","","","","","","","","","","","","","","","","","","","","","","","","","","","","","","","","","","","","","","","","","","","","","","","","","","","","","","","","","","","","","","","","","FALSE","",""
"Columbia Lakes","Columbia Lakes","","NJ","New Jersey","34007","Camden","34007","Camden","39.9348","-75.0049","","","1186.5","point","FALSE","FALSE","FALSE","FALSE","America/New_York","4","08002","1840081987","","","","","","","","","","","","","","","","","","","","","","","","","","","","","","","","","","","","","","","","","","","","","","","","","","","","","","","","","","","","","","","","37980","Philadelphia-Camden-Wilmington, PA-NJ-DE-MD","TRUE","428","Philadelphia-Reading-Camden, PA-NJ-DE-MD"
"Ideal","Ideal","","IL","Illinois","17015","Carroll","17015","Carroll","41.9750","-89.9882","","","4.3","point","FALSE","FALSE","FALSE","FALSE","America/Chicago","5","61285","1840052349","","","","","","","","","","","","","","","","","","","","","","","","","","","","","","","","","","","","","","","","","","","","","","","","","","","","","","","","","","","","","","","","","","FALSE","",""
"Cherry Hill Estates","Cherry Hill Estates","","NJ","New Jersey","34007","Camden","34007","Camden","39.9334","-75.0191","","","1702.2","point","FALSE","FALSE","FALSE","FALSE","America/New_York","4","08002","1840081988","","","","","","","","","","","","","","","","","","","","","","","","","","","","","","","","","","","","","","","","","","","","","","","","","","","","","","","","","","","","","","","","37980","Philadelphia-Camden-Wilmington, PA-NJ-DE-MD","TRUE","428","Philadelphia-Reading-Camden, PA-NJ-DE-MD"
"Linden Grove","Linden Grove","","MN","Minnesota","27137","St. Louis","27137","St. Louis","47.8630","-92.8705","","","3.9","point","FALSE","FALSE","FALSE","FALSE","America/Chicago","5","55723","1840072107","","","","","","","","","","","","","","","","","","","","","","","","","","","","","","","","","","","","","","","","","","","","","","","","","","","","","","","","","","","","","","","","20260","Duluth, MN-WI","TRUE","",""
"Rhodes Crossroads","Rhodes Crossroads","","SC","South Carolina","45029","Colleton","45029","Colleton","32.9588","-80.7098","","","35.7","point","FALSE","FALSE","FALSE","FALSE","America/New_York","4","29488","1840141776","","","","","","","","","","","","","","","","","","","","","","","","","","","","","","","","","","","","","","","","","","","","","","","","","","","","","","","","","","","","","","","","16700","Charleston-North Charleston, SC","TRUE","",""
"Rising Sun","Rising Sun","","IL","Illinois","17193","White","17193","White","38.0003","-88.0281","","","22.2","point","FALSE","FALSE","FALSE","FALSE","America/Chicago","4","62821","1840051583","","","","","","","","","","","","","","","","","","","","","","","","","","","","","","","","","","","","","","","","","","","","","","","","","","","","","","","","","","","","","","","","21780","Evansville, IN-KY","TRUE","",""
"Reeves","Reeves","","TN","Tennessee","47179","Washington","47179","Washington","36.3137","-82.4243","","","319.5","point","FALSE","FALSE","FALSE","FALSE","America/New_York","4","37604","1840129447","","","","","","","","","","","","","","","","","","","","","","","","","","","","","","","","","","","","","","","","","","","","","","","","","","","","","","","","","","","","","","","","27740","Johnson City, TN","TRUE","304","Johnson City-Kingsport-Bristol, TN-VA"
"Reesetown","Reesetown","","TN","Tennessee","47139","Polk","47139","Polk","35.0617","-84.3530","","","16.1","point","FALSE","FALSE","FALSE","FALSE","America/New_York","4","37391","1840129446","","","","","","","","","","","","","","","","","","","","","","","","","","","","","","","","","","","","","","","","","","","","","","","","","","","","","","","","","","","","","","","","17420","Cleveland, TN","TRUE","174","Chattanooga-Cleveland-Dalton, TN-GA"
"Reliance","Reliance","","TN","Tennessee","47139","Polk","47139","Polk","35.1870","-84.4991","","","5.3","point","FALSE","FALSE","FALSE","FALSE","America/New_York","5","37369","1840141777","","","","","","","","","","","","","","","","","","","","","","","","","","","","","","","","","","","","","","","","","","","","","","","","","","","","","","","","","","","","","","","","17420","Cleveland, TN","TRUE","174","Chattanooga-Cleveland-Dalton, TN-GA"
"Lacota","Lacota","","FL","Florida","12083","Marion","12083","Marion","29.2333","-81.9259","","","39.6","point","FALSE","FALSE","FALSE","FALSE","America/New_York","4","34488","1840047880","","","","","","","","","","","","","","","","","","","","","","","","","","","","","","","","","","","","","","","","","","","","","","","","","","","","","","","","","","","","","","","","36100","Ocala, FL","TRUE","",""
"Kasbeer","Kasbeer","","IL","Illinois","17011","Bureau","17011","Bureau","41.5050","-89.4634","","","73.2","point","FALSE","FALSE","FALSE","FALSE","America/Chicago","4","61328","1840051336","","","","","","","","","","","","","","","","","","","","","","","","","","","","","","","","","","","","","","","","","","","","","","","","","","","","","","","","","","","","","","","","36837","Ottawa, IL","FALSE","176","Chicago-Naperville, IL-IN-WI"
"Whitesville","Whitesville","","MO","Missouri","29003","Andrew","29003","Andrew","40.0611","-94.7194","","","11.0","point","FALSE","FALSE","FALSE","FALSE","America/Chicago","4","64480","1840076139","","","","","","","","","","","","","","","","","","","","","","","","","","","","","","","","","","","","","","","","","","","","","","","","","","","","","","","","","","","","","","","","41140","St. Joseph, MO-KS","TRUE","312","Kansas City-Overland Park-Kansas City, MO-KS"
"Lasleys Point","Lasleys Point","","WI","Wisconsin","55139","Winnebago","55139","Winnebago","44.1269","-88.7065","","","119.2","point","FALSE","FALSE","FALSE","FALSE","America/Chicago","4","54986","1840123818","","","","","","","","","","","","","","","","","","","","","","","","","","","","","","","","","","","","","","","","","","","","","","","","","","","","","","","","","","","","","","","","36780","Oshkosh-Neenah, WI","TRUE","118","Appleton-Oshkosh-Neenah, WI"
"Lakeside Park","Lakeside Park","","NY","New York","36013","Chautauqua","36013","Chautauqua","42.2398","-79.4953","","","118.9","point","FALSE","FALSE","FALSE","FALSE","America/New_York","4","14757","1840084323","","","","","","","","","","","","","","","","","","","","","","","","","","","","","","","","","","","","","","","","","","","","","","","","","","","","","","","","","","","","","","","","27460","Jamestown-Dunkirk-Fredonia, NY","FALSE","",""
"Polvo","Polvo","","TX","Texas","48377","Presidio","48377","Presidio","29.4352","-104.1938","","","3.4","point","FALSE","FALSE","FALSE","FALSE","America/Ojinaga","5","79846","1840112896","","","","","","","","","","","","","","","","","","","","","","","","","","","","","","","","","","","","","","","","","","","","","","","","","","","","","","","","","","","","","","","","","","FALSE","",""
"Long Point","Long Point","","MI","Michigan","26031","Cheboygan","26031","Cheboygan","45.5214","-84.5481","","","111.4","point","FALSE","FALSE","FALSE","FALSE","America/Detroit","4","49721","1840070976","","","","","","","","","","","","","","","","","","","","","","","","","","","","","","","","","","","","","","","","","","","","","","","","","","","","","","","","","","","","","","","","","","FALSE","",""
"Long Rapids","Long Rapids","","MI","Michigan","26007","Alpena","26007","Alpena","45.1258","-83.7225","","","35.5","point","FALSE","FALSE","FALSE","FALSE","America/Detroit","4","49753","1840070977","","","","","","","","","","","","","","","","","","","","","","","","","","","","","","","","","","","","","","","","","","","","","","","","","","","","","","","","","","","","","","","","10980","Alpena, MI","FALSE","",""
"Hilton","Hilton","","NJ","New Jersey","34025","Monmouth","34025","Monmouth","40.4121","-74.0221","","","842.7","point","FALSE","FALSE","FALSE","FALSE","America/New_York","4","07716","1840081821","","","","","","","","","","","","","","","","","","","","","","","","","","","","","","","","","","","","","","","","","","","","","","","","","","","","","","","","","","","","","","","","35620","New York-Newark-Jersey City, NY-NJ-PA","TRUE","408","New York-Newark, NY-NJ-CT-PA"
"Midvale","Midvale","","PA","Pennsylvania","42079","Luzerne","42079","Luzerne","41.2670","-75.8633","","","771.4","point","FALSE","FALSE","FALSE","FALSE","America/New_York","4","18705","1840100373","","","","","","","","","","","","","","","","","","","","","","","","","","","","","","","","","","","","","","","","","","","","","","","","","","","","","","","","","","","","","","","","42540","Scranton--Wilkes-Barre, PA","TRUE","",""
"Kimages","Kimages","","VA","Virginia","51036","Charles City","51036","Charles City","37.3526","-77.1944","","","26.1","point","FALSE","FALSE","FALSE","FALSE","America/New_York","4","23030","1840116506","","","","","","","","","","","","","","","","","","","","","","","","","","","","","","","","","","","","","","","","","","","","","","","","","","","","","","","","","","","","","","","","40060","Richmond, VA","TRUE","",""
"Hartley","Hartley","","SD","South Dakota","46055","Haakon","46055","Haakon","44.4011","-101.8104","","","0.2","point","FALSE","FALSE","FALSE","FALSE","America/Denver","5","57567","1840107806","","","","","","","","","","","","","","","","","","","","","","","","","","","","","","","","","","","","","","","","","","","","","","","","","","","","","","","","","","","","","","","","","","FALSE","",""
"Kenyon","Kenyon","","VA","Virginia","51800","Suffolk","51800","Suffolk","36.7335","-76.6550","","","28.0","point","FALSE","FALSE","FALSE","FALSE","America/New_York","4","23434","1840116505","","","","","","","","","","","","","","","","","","","","","","","","","","","","","","","","","","","","","","","","","","","","","","","","","","","","","","","","","","","","","","","","47260","Virginia Beach-Norfolk-Newport News, VA-NC","TRUE","545","Virginia Beach-Norfolk, VA-NC"
"Kelso","Kelso","","TN","Tennessee","47103","Lincoln","47103","Lincoln","35.1259","-86.4686","","","17.1","point","FALSE","FALSE","FALSE","FALSE","America/Chicago","4","37348","1840109977","","","","","","","","","","","","","","","","","","","","","","","","","","","","","","","","","","","","","","","","","","","","","","","","","","","","","","","","","","","","","","","","46100","Tullahoma-Manchester, TN","FALSE","",""
"Hartman","Hartman","","NE","Nebraska","31157","Scotts Bluff","31157","Scotts Bluff","41.8766","-103.9852","","","1.7","point","FALSE","FALSE","FALSE","FALSE","America/Denver","5","69352","1840078674","","","","","","","","","","","","","","","","","","","","","","","","","","","","","","","","","","","","","","","","","","","","","","","","","","","","","","","","","","","","","","","","42420","Scottsbluff, NE","FALSE","",""
"Bluffton","Bluffton","","MO","Missouri","29139","Montgomery","29139","Montgomery","38.7075","-91.6246","","","1.1","point","FALSE","FALSE","FALSE","FALSE","America/Chicago","5","65069","1840076177","","","","","","","","","","","","","","","","","","","","","","","","","","","","","","","","","","","","","","","","","","","","","","","","","","","","","","","","","","","","","","","","","","FALSE","",""
"Brinktown","Brinktown","","MO","Missouri","29125","Maries","29125","Maries","38.1267","-92.0846","","","7.5","point","FALSE","FALSE","FALSE","FALSE","America/Chicago","5","65443","1840076178","","","","","","","","","","","","","","","","","","","","","","","","","","","","","","","","","","","","","","","","","","","","","","","","","","","","","","","","","","","","","","","","","","FALSE","",""
"Cromers","Cromers","","GA","Georgia","13119","Franklin","13119","Franklin","34.2759","-83.2654","","","51.2","point","FALSE","FALSE","FALSE","FALSE","America/New_York","4","30662","1840049901","","","","","","","","","","","","","","","","","","","","","","","","","","","","","","","","","","","","","","","","","","","","","","","","","","","","","","","","","","","","","","","","","","FALSE","",""
"Riley","Riley","","KY","Kentucky","21155","Marion","21155","Marion","37.5595","-85.0988","","","17.6","point","FALSE","FALSE","FALSE","FALSE","America/New_York","4","40328","1840030568","","","","","","","","","","","","","","","","","","","","","","","","","","","","","","","","","","","","","","","","","","","","","","","","","","","","","","","","","","","","","","","","","","FALSE","",""
"Henryville","Henryville","","TN","Tennessee","47099","Lawrence","47099","Lawrence","35.3920","-87.3942","","","30.9","point","FALSE","FALSE","FALSE","FALSE","America/Chicago","4","38483","1840109854","","","","","","","","","","","","","","","","","","","","","","","","","","","","","","","","","","","","","","","","","","","","","","","","","","","","","","","","","","","","","","","","29980","Lawrenceburg, TN","FALSE","400","Nashville-Davidson--Murfreesboro, TN"
"Deeth","Deeth","","NV","Nevada","32007","Elko","32007","Elko","41.0655","-115.2748","","","0.2","point","FALSE","FALSE","FALSE","FALSE","America/Los_Angeles","5","89801","1840027910","","","","","","","","","","","","","","","","","","","","","","","","","","","","","","","","","","","","","","","","","","","","","","","","","","","","","","","","","","","","","","","","21220","Elko, NV","FALSE","",""
"Henkel","Henkel","","CO","Colorado","08041","El Paso","08041","El Paso","38.5200","-104.6264","","","3.8","point","FALSE","FALSE","FALSE","FALSE","America/Denver","5","80817","1840044199","","","","","","","","","","","","","","","","","","","","","","","","","","","","","","","","","","","","","","","","","","","","","","","","","","","","","","","","","","","","","","","","39380","Pueblo, CO","TRUE","444","Pueblo-Ca√±on City, CO"
"Wigwam","Wigwam","","CO","Colorado","08041","El Paso","08041","El Paso","38.5394","-104.6355","","","16.6","point","FALSE","FALSE","FALSE","FALSE","America/Denver","4","80817","1840028490","","","","","","","","","","","","","","","","","","","","","","","","","","","","","","","","","","","","","","","","","","","","","","","","","","","","","","","","","","","","","","","","17820","Colorado Springs, CO","TRUE","",""
"Day","Day","","CA","California","06049","Modoc","06049","Modoc","41.2116","-121.3744","","","0.9","point","FALSE","FALSE","FALSE","FALSE","America/Los_Angeles","5","96056","1840046399","","","","","","","","","","","","","","","","","","","","","","","","","","","","","","","","","","","","","","","","","","","","","","","","","","","","","","","","","","","","","","","","","","FALSE","",""
"Creel","Creel","","AL","Alabama","01127","Walker","01127","Walker","33.8132","-86.9944","","","67.2","point","FALSE","FALSE","FALSE","FALSE","America/Chicago","4","35063","1840041029","","","","","","","","","","","","","","","","","","","","","","","","","","","","","","","","","","","","","","","","","","","","","","","","","","","","","","","","","","","","","","","","27530","Jasper, AL","FALSE","142","Birmingham-Hoover-Talladega, AL"
"Sandy Grove","Sandy Grove","","NC","North Carolina","37057","Davidson","37057","Davidson","35.7901","-80.2159","","","139.3","point","FALSE","FALSE","FALSE","FALSE","America/New_York","4","27292","1840088691","","","","","","","","","","","","","","","","","","","","","","","","","","","","","","","","","","","","","","","","","","","","","","","","","","","","","","","","","","","","","","","","49180","Winston-Salem, NC","TRUE","268","Greensboro--Winston-Salem--High Point, NC"
"Dow Pines","Dow Pines","","ME","Maine","23009","Hancock","23009","Hancock","44.9531","-68.2834","","","2.8","point","FALSE","FALSE","FALSE","FALSE","America/New_York","5","04408","1840065705","","","","","","","","","","","","","","","","","","","","","","","","","","","","","","","","","","","","","","","","","","","","","","","","","","","","","","","","","","","","","","","","12620","Bangor, ME","TRUE","",""
"Dover","Dover","","ME","Maine","23015","Lincoln","23015","Lincoln","43.9231","-69.6378","","","30.2","point","FALSE","FALSE","FALSE","FALSE","America/New_York","4","04537","1840065703","","","","","","","","","","","","","","","","","","","","","","","","","","","","","","","","","","","","","","","","","","","","","","","","","","","","","","","","","","","","","","","","","","FALSE","",""
"Dover South Mills","Dover South Mills","","ME","Maine","23021","Piscataquis","23021","Piscataquis","45.1103","-69.1867","","","20.3","point","FALSE","FALSE","FALSE","FALSE","America/New_York","4","04426","1840065704","","","","","","","","","","","","","","","","","","","","","","","","","","","","","","","","","","","","","","","","","","","","","","","","","","","","","","","","","","","","","","","","12620","Bangor, ME","TRUE","",""
"Snug Harbor","Snug Harbor","","AK","Alaska","02122","Kenai Peninsula","02122","Kenai Peninsula","60.4892","-149.7842","","","48.3","point","FALSE","FALSE","FALSE","FALSE","America/Anchorage","4","99572","1840114284","","","","","","","","","","","","","","","","","","","","","","","","","","","","","","","","","","","","","","","","","","","","","","","","","","","","","","","","","","","","","","","","","","FALSE","",""
"Dodsons Crossroads","Dodsons Crossroads","","NC","North Carolina","37135","Orange","37135","Orange","35.9724","-79.1633","","","55.7","point","FALSE","FALSE","FALSE","FALSE","America/New_York","4","27278","1840088241","","","","","","","","","","","","","","","","","","","","","","","","","","","","","","","","","","","","","","","","","","","","","","","","","","","","","","","","","","","","","","","","20500","Durham-Chapel Hill, NC","TRUE","450","Raleigh-Durham-Cary, NC"
"Dublin","Dublin","","MS","Mississippi","28027","Coahoma","28027","Coahoma","34.0727","-90.4892","0","0","19.0","shape","FALSE","FALSE","TRUE","FALSE","America/Chicago","3","38963 38614","1840032307","","","","","","","","","","","","","","","","","","","","","","","","","","","","","","","","","","","","","0","","","","","","","","","","","","","","","","","","","","","","","","","","","17260","Clarksdale, MS","FALSE","",""
"Lamar","Lamar","","MS","Mississippi","28009","Benton","28009","Benton","34.9123","-89.3151","0","0","4.1","shape","FALSE","FALSE","TRUE","FALSE","America/Chicago","3","38642","1840074255","","","","","","","","","","","","","","","","","","","","","","","","","","","","","","","","","","","","","0","","","","","","","","","","","","","","","","","","","","","","","","","","","32820","Memphis, TN-MS-AR","TRUE","368","Memphis-Forrest City, TN-MS-AR"
"Adelaida","Adelaida","","CA","California","06079","San Luis Obispo","06079","San Luis Obispo","35.6455","-120.8735","","","3.2","point","FALSE","FALSE","FALSE","FALSE","America/Los_Angeles","5","93446","1840130865","","","","","","","","","","","","","","","","","","","","","","","","","","","","","","","","","","","","","","","","","","","","","","","","","","","","","","","","","","","","","","","","42020","San Luis Obispo-Paso Robles, CA","TRUE","",""
"Adams Square","Adams Square","","CA","California","06037","Los Angeles","06037","Los Angeles","34.1336","-118.2412","","","8041.1","point","FALSE","FALSE","FALSE","FALSE","America/Los_Angeles","4","91205","1840130864","","","","","","","","","","","","","","","","","","","","","","","","","","","","","","","","","","","","","","","","","","","","","","","","","","","","","","","","","","","","","","","","31080","Los Angeles-Long Beach-Anaheim, CA","TRUE","348","Los Angeles-Long Beach, CA"
"Aerial Acres","Aerial Acres","","CA","California","06029","Kern","06029","Kern","35.0877","-117.7920","","","21.6","point","FALSE","FALSE","FALSE","FALSE","America/Los_Angeles","4","93523","1840130866","","","","","","","","","","","","","","","","","","","","","","","","","","","","","","","","","","","","","","","","","","","","","","","","","","","","","","","","","","","","","","","","12540","Bakersfield, CA","TRUE","",""
"Agra","Agra","","CA","California","06073","San Diego","06073","San Diego","33.3334","-117.5000","","","0.0","point","FALSE","FALSE","FALSE","FALSE","America/Los_Angeles","5","92672","1840130867","","","","","","","","","","","","","","","","","","","","","","","","","","","","","","","","","","","","","","","","","","","","","","","","","","","","","","","","","","","","","","","","41740","San Diego-Chula Vista-Carlsbad, CA","TRUE","",""
"Cainville","Cainville","","WI","Wisconsin","55105","Rock","55105","Rock","42.7097","-89.2521","","","13.9","point","FALSE","FALSE","FALSE","FALSE","America/Chicago","4","53536","1840123571","","","","","","","","","","","","","","","","","","","","","","","","","","","","","","","","","","","","","","","","","","","","","","","","","","","","","","","","","","","","","","","","27500","Janesville-Beloit, WI","TRUE","357","Madison-Janesville-Beloit, WI"
"Caldwell","Caldwell","","WI","Wisconsin","55101","Racine","55101","Racine","42.8353","-88.2765","","","46.0","point","FALSE","FALSE","FALSE","FALSE","America/Chicago","4","53149","1840123572","","","","","","","","","","","","","","","","","","","","","","","","","","","","","","","","","","","","","","","","","","","","","","","","","","","","","","","","","","","","","","","","39540","Racine, WI","TRUE","376","Milwaukee-Racine-Waukesha, WI"
"Oil Center","Oil Center","","OK","Oklahoma","40123","Pontotoc","40123","Pontotoc","34.8687","-96.8242","","","34.7","point","FALSE","FALSE","FALSE","FALSE","America/Chicago","4","74820","1840096476","","","","","","","","","","","","","","","","","","","","","","","","","","","","","","","","","","","","","","","","","","","","","","","","","","","","","","","","","","","","","","","","10220","Ada, OK","FALSE","",""
"Goodrich","Goodrich","","IL","Illinois","17091","Kankakee","17091","Kankakee","41.1089","-88.0581","","","2.8","point","FALSE","FALSE","FALSE","FALSE","America/Chicago","5","60913","1840051254","","","","","","","","","","","","","","","","","","","","","","","","","","","","","","","","","","","","","","","","","","","","","","","","","","","","","","","","","","","","","","","","28100","Kankakee, IL","TRUE","176","Chicago-Naperville, IL-IN-WI"
"Oglesby","Oglesby","","OK","Oklahoma","40147","Washington","40147","Washington","36.6265","-95.8567","","","26.1","point","FALSE","FALSE","FALSE","FALSE","America/Chicago","4","74061","1840034472","","","","","","","","","","","","","","","","","","","","","","","","","","","","","","","","","","","","","","","","","","","","","","","","","","","","","","","","","","","","","","","","12780","Bartlesville, OK","FALSE","538","Tulsa-Muskogee-Bartlesville, OK"
"Hightown","Hightown","","MS","Mississippi","28003","Alcorn","28003","Alcorn","34.8218","-88.6728","","","19.0","point","FALSE","FALSE","FALSE","FALSE","America/Chicago","4","38834","1840074210","","","","","","","","","","","","","","","","","","","","","","","","","","","","","","","","","","","","","","","","","","","","","","","","","","","","","","","","","","","","","","","","18420","Corinth, MS","FALSE","539","Tupelo-Corinth, MS"
"Highlandale","Highlandale","","MS","Mississippi","28083","Leflore","28083","Leflore","33.6807","-90.3440","","","1.1","point","FALSE","FALSE","FALSE","FALSE","America/Chicago","5","38944","1840074209","","","","","","","","","","","","","","","","","","","","","","","","","","","","","","","","","","","","","","","","","","","","","","","","","","","","","","","","","","","","","","","","24900","Greenwood, MS","FALSE","",""
"Fort Seward","Fort Seward","","CA","California","06023","Humboldt","06023","Humboldt","40.2229","-123.6434","","","9.5","point","FALSE","FALSE","FALSE","FALSE","America/Los_Angeles","5","95514","1840045866","","","","","","","","","","","","","","","","","","","","","","","","","","","","","","","","","","","","","","","","","","","","","","","","","","","","","","","","","","","","","","","","21700","Eureka-Arcata, CA","FALSE","",""
"Akron","Akron","","MS","Mississippi","28069","Kemper","28069","Kemper","32.7410","-88.5248","","","0.5","point","FALSE","FALSE","FALSE","FALSE","America/Chicago","5","39352","1840074660","","","","","","","","","","","","","","","","","","","","","","","","","","","","","","","","","","","","","","","","","","","","","","","","","","","","","","","","","","","","","","","","32940","Meridian, MS","FALSE","",""
"Cross Roads","Cross Roads","","AR","Arkansas","05053","Grant","05053","Grant","34.2248","-92.4060","","","27.6","point","FALSE","FALSE","FALSE","FALSE","America/Chicago","4","72150","1840141788","","","","","","","","","","","","","","","","","","","","","","","","","","","","","","","","","","","","","","","","","","","","","","","","","","","","","","","","","","","","","","","","30780","Little Rock-North Little Rock-Conway, AR","TRUE","340","Little Rock-North Little Rock, AR"
"Cricket","Cricket","","AR","Arkansas","05009","Boone","05009","Boone","36.4490","-93.2024","","","18.8","point","FALSE","FALSE","FALSE","FALSE","America/Chicago","4","72662","1840038861","","","","","","","","","","","","","","","","","","","","","","","","","","","","","","","","","","","","","","","","","","","","","","","","","","","","","","","","","","","","","","","","25460","Harrison, AR","FALSE","",""
"Cross Lanes","Cross Lanes","","AR","Arkansas","05033","Crawford","05033","Crawford","35.3901","-94.2060","","","0.4","point","FALSE","FALSE","FALSE","FALSE","America/Chicago","5","72921","1840038862","","","","","","","","","","","","","","","","","","","","","","","","","","","","","","","","","","","","","","","","","","","","","","","","","","","","","","","","","","","","","","","","22900","Fort Smith, AR-OK","TRUE","",""
"Cowlingsville","Cowlingsville","","AR","Arkansas","05133","Sevier","05133","Sevier","33.8485","-94.0680","","","2.1","point","FALSE","FALSE","FALSE","FALSE","America/Chicago","5","71846","1840038860","","","","","","","","","","","","","","","","","","","","","","","","","","","","","","","","","","","","","","","","","","","","","","","","","","","","","","","","","","","","","","","","45500","Texarkana, TX-AR","TRUE","",""
"Cornie","Cornie","","AR","Arkansas","05139","Union","05139","Union","33.0679","-92.7260","","","0.3","point","FALSE","FALSE","FALSE","FALSE","America/Chicago","5","71749","1840038858","","","","","","","","","","","","","","","","","","","","","","","","","","","","","","","","","","","","","","","","","","","","","","","","","","","","","","","","","","","","","","","","20980","El Dorado, AR","FALSE","",""
"Cummings Springs","Cummings Springs","","AR","Arkansas","05099","Nevada","05099","Nevada","33.7529","-93.1838","","","0.8","point","FALSE","FALSE","FALSE","FALSE","America/Chicago","5","71857","1840038866","","","","","","","","","","","","","","","","","","","","","","","","","","","","","","","","","","","","","","","","","","","","","","","","","","","","","","","","","","","","","","","","26260","Hope, AR","FALSE","",""
"Crystal Spring","Crystal Spring","","PA","Pennsylvania","42057","Fulton","42057","Fulton","39.9498","-78.2286","","","13.7","point","FALSE","FALSE","FALSE","FALSE","America/New_York","4","15536","1840098980","","","","","","","","","","","","","","","","","","","","","","","","","","","","","","","","","","","","","","","","","","","","","","","","","","","","","","","","","","","","","","","","","","FALSE","",""
"San Isabel","San Isabel","","CO","Colorado","08027","Custer","08027","Custer","37.9875","-105.0544","","","39.8","point","FALSE","FALSE","FALSE","FALSE","America/Denver","4","81069","1840044152","","","","","","","","","","","","","","","","","","","","","","","","","","","","","","","","","","","","","","","","","","","","","","","","","","","","","","","","","","","","","","","","","","FALSE","",""
"Boynton","Boynton","","IL","Illinois","17179","Tazewell","17179","Tazewell","40.3523","-89.4354","","","8.3","point","FALSE","FALSE","FALSE","FALSE","America/Chicago","5","61734","1840051927","","","","","","","","","","","","","","","","","","","","","","","","","","","","","","","","","","","","","","","","","","","","","","","","","","","","","","","","","","","","","","","","37900","Peoria, IL","TRUE","",""
"Boyle","Boyle","","IL","Illinois","17061","Greene","17061","Greene","39.2834","-90.5773","","","0.5","point","FALSE","FALSE","FALSE","FALSE","America/Chicago","5","62027","1840051926","","","","","","","","","","","","","","","","","","","","","","","","","","","","","","","","","","","","","","","","","","","","","","","","","","","","","","","","","","","","","","","","41180","St. Louis, MO-IL","TRUE","476","St. Louis-St. Charles-Farmington, MO-IL"
"Braden","Braden","","IL","Illinois","17065","Hamilton","17065","Hamilton","37.9964","-88.6162","","","3.1","point","FALSE","FALSE","FALSE","FALSE","America/Chicago","5","62859","1840051929","","","","","","","","","","","","","","","","","","","","","","","","","","","","","","","","","","","","","","","","","","","","","","","","","","","","","","","","","","","","","","","","","","FALSE","",""
"Bradbury","Bradbury","","IL","Illinois","17035","Cumberland","17035","Cumberland","39.3242","-88.2428","","","8.9","point","FALSE","FALSE","FALSE","FALSE","America/Chicago","5","62468","1840051928","","","","","","","","","","","","","","","","","","","","","","","","","","","","","","","","","","","","","","","","","","","","","","","","","","","","","","","","","","","","","","","","16660","Charleston-Mattoon, IL","FALSE","",""
"Breckenridge","Breckenridge","","IL","Illinois","17167","Sangamon","17167","Sangamon","39.6989","-89.4476","","","36.7","point","FALSE","FALSE","FALSE","FALSE","America/Chicago","4","62563","1840051931","","","","","","","","","","","","","","","","","","","","","","","","","","","","","","","","","","","","","","","","","","","","","","","","","","","","","","","","","","","","","","","","44100","Springfield, IL","TRUE","522","Springfield-Jacksonville-Lincoln, IL"
"Bradfordton","Bradfordton","","IL","Illinois","17167","Sangamon","17167","Sangamon","39.8234","-89.7395","","","29.9","point","FALSE","FALSE","FALSE","FALSE","America/Chicago","4","62711","1840051930","","","","","","","","","","","","","","","","","","","","","","","","","","","","","","","","","","","","","","","","","","","","","","","","","","","","","","","","","","","","","","","","44100","Springfield, IL","TRUE","522","Springfield-Jacksonville-Lincoln, IL"
"Chandler Heights","Chandler Heights","","AZ","Arizona","04013","Maricopa","04013","Maricopa","33.2120","-111.6862","","","474.9","point","FALSE","FALSE","FALSE","FALSE","America/Phoenix","4","85142","1840001816","","","","","","","","","","","","","","","","","","","","","","","","","","","","","","","","","","","","","","","","","","","","","","","","","","","","","","","","","","","","","","","","38060","Phoenix-Mesa-Chandler, AZ","TRUE","429","Phoenix-Mesa, AZ"
"Glenside Park","Glenside Park","","MD","Maryland","24005","Baltimore","24005","Baltimore","39.3871","-76.5202","","","1786.5","point","FALSE","FALSE","FALSE","FALSE","America/New_York","4","21234","1840067307","","","","","","","","","","","","","","","","","","","","","","","","","","","","","","","","","","","","","","","","","","","","","","","","","","","","","","","","","","","","","","","","12580","Baltimore-Columbia-Towson, MD","TRUE","548","Washington-Baltimore-Arlington, DC-MD-VA-WV-PA"
"Harold","Harold","","CA","California","06037","Los Angeles","06037","Los Angeles","34.5450","-118.1095","","","290.3","point","FALSE","FALSE","FALSE","FALSE","America/Los_Angeles","4","93550","1840046510","","","","","","","","","","","","","","","","","","","","","","","","","","","","","","","","","","","","","","","","","","","","","","","","","","","","","","","","","","","","","","","","31080","Los Angeles-Long Beach-Anaheim, CA","TRUE","348","Los Angeles-Long Beach, CA"
"Pardoe","Pardoe","","PA","Pennsylvania","42085","Mercer","42085","Mercer","41.2181","-80.1448","","","67.0","point","FALSE","FALSE","FALSE","FALSE","America/New_York","4","16137","1840100724","","","","","","","","","","","","","","","","","","","","","","","","","","","","","","","","","","","","","","","","","","","","","","","","","","","","","","","","","","","","","","","","49660","Youngstown-Warren-Boardman, OH-PA","TRUE","566","Youngstown-Warren, OH-PA"
"West Cumberland","West Cumberland","","ME","Maine","23005","Cumberland","23005","Cumberland","43.8156","-70.3142","","","180.0","point","FALSE","FALSE","FALSE","FALSE","America/New_York","4","04021","1840065535","","","","","","","","","","","","","","","","","","","","","","","","","","","","","","","","","","","","","","","","","","","","","","","","","","","","","","","","","","","","","","","","38860","Portland-South Portland, ME","TRUE","438","Portland-Lewiston-South Portland, ME"
"Arbo","Arbo","","MS","Mississippi","28031","Covington","28031","Covington","31.7268","-89.6340","","","19.2","point","FALSE","FALSE","FALSE","FALSE","America/Chicago","4","39119","1840074665","","","","","","","","","","","","","","","","","","","","","","","","","","","","","","","","","","","","","","","","","","","","","","","","","","","","","","","","","","","","","","","","25620","Hattiesburg, MS","TRUE","279","Hattiesburg-Laurel, MS"
"Park Gate","Park Gate","","PA","Pennsylvania","42073","Lawrence","42073","Lawrence","40.8542","-80.3073","","","283.9","point","FALSE","FALSE","FALSE","FALSE","America/New_York","4","16117","1840100725","","","","","","","","","","","","","","","","","","","","","","","","","","","","","","","","","","","","","","","","","","","","","","","","","","","","","","","","","","","","","","","","38300","Pittsburgh, PA","TRUE","430","Pittsburgh-New Castle-Weirton, PA-OH-WV"
"West Durham","West Durham","","ME","Maine","23001","Androscoggin","23001","Androscoggin","43.9492","-70.1473","","","17.3","point","FALSE","FALSE","FALSE","FALSE","America/New_York","4","04222","1840065537","","","","","","","","","","","","","","","","","","","","","","","","","","","","","","","","","","","","","","","","","","","","","","","","","","","","","","","","","","","","","","","","38860","Portland-South Portland, ME","TRUE","438","Portland-Lewiston-South Portland, ME"
"West Dresden","West Dresden","","ME","Maine","23015","Lincoln","23015","Lincoln","44.0879","-69.7725","","","41.1","point","FALSE","FALSE","FALSE","FALSE","America/New_York","4","04342","1840065536","","","","","","","","","","","","","","","","","","","","","","","","","","","","","","","","","","","","","","","","","","","","","","","","","","","","","","","","","","","","","","","","38860","Portland-South Portland, ME","TRUE","438","Portland-Lewiston-South Portland, ME"
"Roseland","Roseland","","NY","New York","36055","Monroe","36055","Monroe","43.1815","-77.3864","","","89.5","point","FALSE","FALSE","FALSE","FALSE","America/New_York","4","14580","1840085158","","","","","","","","","","","","","","","","","","","","","","","","","","","","","","","","","","","","","","","","","","","","","","","","","","","","","","","","","","","","","","","","40380","Rochester, NY","TRUE","464","Rochester-Batavia-Seneca Falls, NY"
"Rosecrans Park","Rosecrans Park","","NY","New York","36083","Rensselaer","36083","Rensselaer","42.5304","-73.6071","","","223.0","point","FALSE","FALSE","FALSE","FALSE","America/New_York","4","12123","1840085157","","","","","","","","","","","","","","","","","","","","","","","","","","","","","","","","","","","","","","","","","","","","","","","","","","","","","","","","","","","","","","","","10580","Albany-Schenectady-Troy, NY","TRUE","104","Albany-Schenectady, NY"
"Allen","Allen","","MS","Mississippi","28149","Warren","28149","Warren","32.1079","-90.9582","","","0.1","point","FALSE","FALSE","FALSE","FALSE","America/Chicago","5","39180","1840141791","","","","","","","","","","","","","","","","","","","","","","","","","","","","","","","","","","","","","","","","","","","","","","","","","","","","","","","","","","","","","","","","","","FALSE","",""
"Mariana","Mariana","","PR","Puerto Rico","72031","Carolina","72031","Carolina","18.3336","-65.9532","","","486.2","point","FALSE","FALSE","FALSE","FALSE","America/Puerto_Rico","4","00987","1630141792","","","","","","","","","","","","","","","","","","","","","","","","","","","","","","","","","","","","","","","","","","","","","","","","","","","","","","","","","","","","","","","","41980","San Juan-Bayam√≥n-Caguas, PR","TRUE","490","San Juan-Bayam√≥n, PR"
"Mariani","Mariani","","PR","Puerto Rico","72113","Ponce","72113","Ponce","18.0069","-66.6180","","","3545.4","point","FALSE","FALSE","FALSE","FALSE","America/Puerto_Rico","4","00717","1630126580","","","","","","","","","","","","","","","","","","","","","","","","","","","","","","","","","","","","","","","","","","","","","","","","","","","","","","","","","","","","","","","","38660","Ponce, PR","TRUE","434","Ponce-Yauco-Coamo, PR"
"Mar√≠a Jim√©nez","Maria Jimenez","","PR","Puerto Rico","72063","Gurabo","72063","Gurabo","18.2647","-65.9416","","","613.2","point","FALSE","FALSE","FALSE","FALSE","America/Puerto_Rico","4","00778","1630126577","","","","","","","","","","","","","","","","","","","","","","","","","","","","","","","","","","","","","","","","","","","","","","","","","","","","","","","","","","","","","","","","41980","San Juan-Bayam√≥n-Caguas, PR","TRUE","490","San Juan-Bayam√≥n, PR"
"Corner Store","Corner Store","","PA","Pennsylvania","42029","Chester","42029","Chester","40.1176","-75.5049","","","994.5","point","FALSE","FALSE","FALSE","FALSE","America/New_York","4","19460","1840098924","","","","","","","","","","","","","","","","","","","","","","","","","","","","","","","","","","","","","","","","","","","","","","","","","","","","","","","","","","","","","","","","37980","Philadelphia-Camden-Wilmington, PA-NJ-DE-MD","TRUE","428","Philadelphia-Reading-Camden, PA-NJ-DE-MD"
"Wirt","Wirt","","MN","Minnesota","27061","Itasca","27061","Itasca","47.7305","-93.9599","","","10.0","point","FALSE","FALSE","FALSE","FALSE","America/Chicago","5","56688","1840031984","","","","","","","","","","","","","","","","","","","","","","","","","","","","","","","","","","","","","","","","","","","","","","","","","","","","","","","","","","","","","","","","24330","Grand Rapids, MN","FALSE","",""
"Mart√≠n Pe√±a","Martin Pena","","PR","Puerto Rico","72127","San Juan","72127","San Juan","18.4272","-66.0527","","","7423.9","point","FALSE","FALSE","FALSE","FALSE","America/Puerto_Rico","4","00917","1630126582","","","","","","","","","","","","","","","","","","","","","","","","","","","","","","","","","","","","","","","","","","","","","","","","","","","","","","","","","","","","","","","","41980","San Juan-Bayam√≥n-Caguas, PR","TRUE","490","San Juan-Bayam√≥n, PR"
"Winter","Winter","","MN","Minnesota","27075","Lake","27075","Lake","47.5271","-91.4904","","","0.1","point","FALSE","FALSE","FALSE","FALSE","America/Chicago","5","55607","1840072047","","","","","","","","","","","","","","","","","","","","","","","","","","","","","","","","","","","","","","","","","","","","","","","","","","","","","","","","","","","","","","","","20260","Duluth, MN-WI","TRUE","",""
"Pleasant View","Pleasant View","","MT","Montana","30021","Dawson","30021","Dawson","47.0361","-104.9300","","","0.1","point","FALSE","FALSE","FALSE","FALSE","America/Denver","5","59330","1840078077","","","","","","","","","","","","","","","","","","","","","","","","","","","","","","","","","","","","","","","","","","","","","","","","","","","","","","","","","","","","","","","","","","FALSE","",""
"Ladoga","Ladoga","","MI","Michigan","26003","Alger","26003","Alger","46.2819","-87.0549","","","2.2","point","FALSE","FALSE","FALSE","FALSE","America/Detroit","5","49891","1840127848","","","","","","","","","","","","","","","","","","","","","","","","","","","","","","","","","","","","","","","","","","","","","","","","","","","","","","","","","","","","","","","","","","FALSE","",""
"Pleasant Prairie","Pleasant Prairie","","MT","Montana","30019","Daniels","30019","Daniels","48.5922","-105.0825","","","0.0","point","FALSE","FALSE","FALSE","FALSE","America/Denver","5","59222","1840078076","","","","","","","","","","","","","","","","","","","","","","","","","","","","","","","","","","","","","","","","","","","","","","","","","","","","","","","","","","","","","","","","","","FALSE","",""
"Talleys Crossing","Talleys Crossing","","NC","North Carolina","37067","Forsyth","37067","Forsyth","36.1343","-80.1178","","","225.3","point","FALSE","FALSE","FALSE","FALSE","America/New_York","4","27284","1840088768","","","","","","","","","","","","","","","","","","","","","","","","","","","","","","","","","","","","","","","","","","","","","","","","","","","","","","","","","","","","","","","","49180","Winston-Salem, NC","TRUE","268","Greensboro--Winston-Salem--High Point, NC"
"Round Knob","Round Knob","","PA","Pennsylvania","42009","Bedford","42009","Bedford","40.1498","-78.1925","","","15.2","point","FALSE","FALSE","FALSE","FALSE","America/New_York","4","16679","1840101088","","","","","","","","","","","","","","","","","","","","","","","","","","","","","","","","","","","","","","","","","","","","","","","","","","","","","","","","","","","","","","","","26500","Huntingdon, PA","FALSE","107","Altoona-Huntingdon, PA"
"Cedar Cliff","Cedar Cliff","","GA","Georgia","13281","Towns","13281","Towns","34.9806","-83.7932","","","206.7","point","FALSE","FALSE","FALSE","FALSE","America/New_York","4","30546","1840048766","","","","","","","","","","","","","","","","","","","","","","","","","","","","","","","","","","","","","","","","","","","","","","","","","","","","","","","","","","","","","","","","","","FALSE","",""
"Catlett","Catlett","","GA","Georgia","13295","Walker","13295","Walker","34.7495","-85.1925","","","96.1","point","FALSE","FALSE","FALSE","FALSE","America/New_York","4","30728","1840048765","","","","","","","","","","","","","","","","","","","","","","","","","","","","","","","","","","","","","","","","","","","","","","","","","","","","","","","","","","","","","","","","16860","Chattanooga, TN-GA","TRUE","174","Chattanooga-Cleveland-Dalton, TN-GA"
"Cash","Cash","","GA","Georgia","13129","Gordon","13129","Gordon","34.4898","-84.8185","","","125.3","point","FALSE","FALSE","FALSE","FALSE","America/New_York","4","30139","1840048764","","","","","","","","","","","","","","","","","","","","","","","","","","","","","","","","","","","","","","","","","","","","","","","","","","","","","","","","","","","","","","","","15660","Calhoun, GA","FALSE","174","Chattanooga-Cleveland-Dalton, TN-GA"
"Everroad Park","Everroad Park","","IN","Indiana","18005","Bartholomew","18005","Bartholomew","39.2284","-85.8880","","","864.2","point","FALSE","FALSE","FALSE","FALSE","America/Indiana/Indianapolis","4","47203","1840054667","","","","","","","","","","","","","","","","","","","","","","","","","","","","","","","","","","","","","","","","","","","","","","","","","","","","","","","","","","","","","","","","18020","Columbus, IN","TRUE","294","Indianapolis-Carmel-Muncie, IN"
"McKay Beach","McKay Beach","","MD","Maryland","24037","St. Mary's","24037","St. Mary's","38.1871","-76.5513","","","99.1","point","FALSE","FALSE","FALSE","FALSE","America/New_York","4","20650","1840068292","","","","","","","","","","","","","","","","","","","","","","","","","","","","","","","","","","","","","","","","","","","","","","","","","","","","","","","","","","","","","","","","15680","California-Lexington Park, MD","TRUE","548","Washington-Baltimore-Arlington, DC-MD-VA-WV-PA"
"Milestown","Milestown","","MD","Maryland","24037","St. Mary's","24037","St. Mary's","38.2874","-76.7736","","","49.6","point","FALSE","FALSE","FALSE","FALSE","America/New_York","4","20618","1840068293","","","","","","","","","","","","","","","","","","","","","","","","","","","","","","","","","","","","","","","","","","","","","","","","","","","","","","","","","","","","","","","","15680","California-Lexington Park, MD","TRUE","548","Washington-Baltimore-Arlington, DC-MD-VA-WV-PA"
"Cogswell","Cogswell","","KY","Kentucky","21205","Rowan","21205","Rowan","38.1025","-83.4983","","","19.2","point","FALSE","FALSE","FALSE","FALSE","America/New_York","4","40351","1840062716","","","","","","","","","","","","","","","","","","","","","","","","","","","","","","","","","","","","","","","","","","","","","","","","","","","","","","","","","","","","","","","","34460","Mount Sterling, KY","FALSE","336","Lexington-Fayette--Richmond--Frankfort, KY"
"Newark","Newark","","GA","Georgia","13275","Thomas","13275","Thomas","30.8238","-83.9096","","","224.2","point","FALSE","FALSE","FALSE","FALSE","America/New_York","4","31757","1840049302","","","","","","","","","","","","","","","","","","","","","","","","","","","","","","","","","","","","","","","","","","","","","","","","","","","","","","","","","","","","","","","","45620","Thomasville, GA","FALSE","",""
"New Town","New Town","","GA","Georgia","13129","Gordon","13129","Gordon","34.5306","-84.9058","","","249.9","point","FALSE","FALSE","FALSE","FALSE","America/New_York","4","30701","1840141794","","","","","","","","","","","","","","","","","","","","","","","","","","","","","","","","","","","","","","","","","","","","","","","","","","","","","","","","","","","","","","","","15660","Calhoun, GA","FALSE","174","Chattanooga-Cleveland-Dalton, TN-GA"
"Newell","Newell","","GA","Georgia","13049","Charlton","13049","Charlton","30.9416","-82.0221","","","3.9","point","FALSE","FALSE","FALSE","FALSE","America/New_York","5","31537","1840049303","","","","","","","","","","","","","","","","","","","","","","","","","","","","","","","","","","","","","","","","","","","","","","","","","","","","","","","","","","","","","","","","48180","Waycross, GA","FALSE","",""
"New Lacy","New Lacy","","GA","Georgia","13005","Bacon","13005","Bacon","31.5394","-82.3715","","","14.7","point","FALSE","FALSE","FALSE","FALSE","America/New_York","4","31510","1840049298","","","","","","","","","","","","","","","","","","","","","","","","","","","","","","","","","","","","","","","","","","","","","","","","","","","","","","","","","","","","","","","","","","FALSE","",""
"New Hope","New Hope","","GA","Georgia","13123","Gilmer","13123","Gilmer","34.7276","-84.5088","","","274.2","point","FALSE","FALSE","FALSE","FALSE","America/New_York","4","30540","1840141795","","","","","","","","","","","","","","","","","","","","","","","","","","","","","","","","","","","","","","","","","","","","","","","","","","","","","","","","","","","","","","","","","","FALSE","",""
"New Point","New Point","","GA","Georgia","13261","Sumter","13261","Sumter","32.0549","-84.3024","","","9.2","point","FALSE","FALSE","FALSE","FALSE","America/New_York","5","31780","1840049299","","","","","","","","","","","","","","","","","","","","","","","","","","","","","","","","","","","","","","","","","","","","","","","","","","","","","","","","","","","","","","","","11140","Americus, GA","FALSE","",""
"Catahoula Cove","Catahoula Cove","","LA","Louisiana","22099","St. Martin","22099","St. Martin","30.1935","-91.7462","","","74.7","point","FALSE","FALSE","FALSE","FALSE","America/Chicago","4","70582","1840064561","","","","","","","","","","","","","","","","","","","","","","","","","","","","","","","","","","","","","","","","","","","","","","","","","","","","","","","","","","","","","","","","29180","Lafayette, LA","TRUE","318","Lafayette-Opelousas-Morgan City, LA"
"Hankamer","Hankamer","","TX","Texas","48071","Chambers","48071","Chambers","29.8583","-94.6269","","","31.1","point","FALSE","FALSE","FALSE","FALSE","America/Chicago","4","77560","1840036240","","","","","","","","","","","","","","","","","","","","","","","","","","","","","","","","","","","","","","","","","","","","","","","","","","","","","","","","","","","","","","","","26420","Houston-The Woodlands-Sugar Land, TX","TRUE","288","Houston-The Woodlands, TX"
"Porter Crossroads","Porter Crossroads","","IN","Indiana","18127","Porter","18127","Porter","41.3992","-87.1617","","","113.8","point","FALSE","FALSE","FALSE","FALSE","America/Chicago","4","46385","1840055434","","","","","","","","","","","","","","","","","","","","","","","","","","","","","","","","","","","","","","","","","","","","","","","","","","","","","","","","","","","","","","","","16980","Chicago-Naperville-Elgin, IL-IN-WI","TRUE","176","Chicago-Naperville, IL-IN-WI"
"Enochsburg","Enochsburg","","IN","Indiana","18031","Decatur","18031","Decatur","39.3342","-85.2975","","","10.6","point","FALSE","FALSE","FALSE","FALSE","America/Indiana/Indianapolis","4","47240","1840055993","","","","","","","","","","","","","","","","","","","","","","","","","","","","","","","","","","","","","","","","","","","","","","","","","","","","","","","","","","","","","","","","24700","Greensburg, IN","FALSE","294","Indianapolis-Carmel-Muncie, IN"
"Fair Oaks","Fair Oaks","","IN","Indiana","18073","Jasper","18073","Jasper","41.0750","-87.2575","","","34.8","point","FALSE","FALSE","FALSE","FALSE","America/Chicago","4","47943","1840030054","","","","","","","","","","","","","","","","","","","","","","","","","","","","","","","","","","","","","","","","","","","","","","","","","","","","","","","","","","","","","","","","16980","Chicago-Naperville-Elgin, IL-IN-WI","TRUE","176","Chicago-Naperville, IL-IN-WI"
"Fairfield Center","Fairfield Center","","IN","Indiana","18033","DeKalb","18033","DeKalb","41.4826","-85.1280","","","23.4","point","FALSE","FALSE","FALSE","FALSE","America/Indiana/Indianapolis","4","46730","1840055995","","","","","","","","","","","","","","","","","","","","","","","","","","","","","","","","","","","","","","","","","","","","","","","","","","","","","","","","","","","","","","","","12140","Auburn, IN","FALSE","258","Fort Wayne-Huntington-Auburn, IN"
"Fairview","Fairview","","IN","Indiana","18155","Switzerland","18155","Switzerland","38.8734","-85.0808","","","86.6","point","FALSE","FALSE","FALSE","FALSE","America/Indiana/Vevay","4","47011","1840141796","","","","","","","","","","","","","","","","","","","","","","","","","","","","","","","","","","","","","","","","","","","","","","","","","","","","","","","","","","","","","","","","17140","Cincinnati, OH-KY-IN","TRUE","178","Cincinnati-Wilmington-Maysville, OH-KY-IN"
"Portersville","Portersville","","IN","Indiana","18037","Dubois","18037","Dubois","38.4995","-86.9783","","","16.9","point","FALSE","FALSE","FALSE","FALSE","America/Indiana/Vincennes","4","47546","1840055435","","","","","","","","","","","","","","","","","","","","","","","","","","","","","","","","","","","","","","","","","","","","","","","","","","","","","","","","","","","","","","","","47780","Washington, IN","FALSE","",""
"Flat Rock","Flat Rock","","IN","Indiana","18145","Shelby","18145","Shelby","39.3642","-85.8317","","","191.5","point","FALSE","FALSE","FALSE","FALSE","America/Indiana/Indianapolis","4","47234","1840030055","","","","","","","","","","","","","","","","","","","","","","","","","","","","","","","","","","","","","","","","","","","","","","","","","","","","","","","","","","","","","","","","26900","Indianapolis-Carmel-Anderson, IN","TRUE","294","Indianapolis-Carmel-Muncie, IN"
"New Salem","New Salem","","TN","Tennessee","47065","Hamilton","47065","Hamilton","35.2403","-85.1530","","","506.2","point","FALSE","FALSE","FALSE","FALSE","America/New_York","4","37379","1840110260","","","","","","","","","","","","","","","","","","","","","","","","","","","","","","","","","","","","","","","","","","","","","","","","","","","","","","","","","","","","","","","","16860","Chattanooga, TN-GA","TRUE","174","Chattanooga-Cleveland-Dalton, TN-GA"
"New Safford","New Safford","","TN","Tennessee","47077","Henderson","47077","Henderson","35.7290","-88.2042","","","4.0","point","FALSE","FALSE","FALSE","FALSE","America/Chicago","5","38328","1840110259","","","","","","","","","","","","","","","","","","","","","","","","","","","","","","","","","","","","","","","","","","","","","","","","","","","","","","","","","","","","","","","","","","FALSE","",""
"McAllister","McAllister","","WI","Wisconsin","55075","Marinette","55075","Marinette","45.3272","-87.7212","","","9.1","point","FALSE","FALSE","FALSE","FALSE","America/Chicago","5","54177","1840037985","","","","","","","","","","","","","","","","","","","","","","","","","","","","","","","","","","","","","","","","","","","","","","","","","","","","","","","","","","","","","","","","31940","Marinette, WI-MI","FALSE","361","Marinette-Iron Mountain, WI-MI"
"Watrousville","Watrousville","","MI","Michigan","26157","Tuscola","26157","Tuscola","43.4522","-83.5230","","","37.9","point","FALSE","FALSE","FALSE","FALSE","America/Detroit","4","48768","1840127213","","","","","","","","","","","","","","","","","","","","","","","","","","","","","","","","","","","","","","","","","","","","","","","","","","","","","","","","","","","","","","","","","","FALSE","",""
"Johnsville","Johnsville","","CA","California","06063","Plumas","06063","Plumas","39.7663","-120.7130","0","0","0.2","shape","FALSE","FALSE","TRUE","FALSE","America/Los_Angeles","3","96103","1840017522","","","","","","","","","","","","","","","","","","","","","","","","","","","","","","","","","","","","","0","","","","","","","","","","","","","","","","","","","","","","","","","","","45000","Susanville, CA","FALSE","",""
"Kis-Lyn","Kis-Lyn","","PA","Pennsylvania","42079","Luzerne","42079","Luzerne","41.0056","-75.9869","","","162.4","point","FALSE","FALSE","FALSE","FALSE","America/New_York","4","18222","1840099968","","","","","","","","","","","","","","","","","","","","","","","","","","","","","","","","","","","","","","","","","","","","","","","","","","","","","","","","","","","","","","","","42540","Scranton--Wilkes-Barre, PA","TRUE","",""
"Kirwan Heights","Kirwan Heights","","PA","Pennsylvania","42003","Allegheny","42003","Allegheny","40.3687","-80.1017","","","224.4","point","FALSE","FALSE","FALSE","FALSE","America/New_York","4","15017","1840099967","","","","","","","","","","","","","","","","","","","","","","","","","","","","","","","","","","","","","","","","","","","","","","","","","","","","","","","","","","","","","","","","38300","Pittsburgh, PA","TRUE","430","Pittsburgh-New Castle-Weirton, PA-OH-WV"
"Kirklyn","Kirklyn","","PA","Pennsylvania","42045","Delaware","42045","Delaware","39.9693","-75.2907","","","3823.7","point","FALSE","FALSE","FALSE","FALSE","America/New_York","4","19082","1840099966","","","","","","","","","","","","","","","","","","","","","","","","","","","","","","","","","","","","","","","","","","","","","","","","","","","","","","","","","","","","","","","","37980","Philadelphia-Camden-Wilmington, PA-NJ-DE-MD","TRUE","428","Philadelphia-Reading-Camden, PA-NJ-DE-MD"
"Wannee","Wannee","","FL","Florida","12041","Gilchrist","12041","Gilchrist","29.7186","-82.9410","","","32.9","point","FALSE","FALSE","FALSE","FALSE","America/New_York","4","32619","1840028857","","","","","","","","","","","","","","","","","","","","","","","","","","","","","","","","","","","","","","","","","","","","","","","","","","","","","","","","","","","","","","","","23540","Gainesville, FL","TRUE","264","Gainesville-Lake City, FL"
"Waterbury","Waterbury","","FL","Florida","12081","Manatee","12081","Manatee","27.4456","-82.3031","","","21.1","point","FALSE","FALSE","FALSE","FALSE","America/New_York","4","34251","1840047360","","","","","","","","","","","","","","","","","","","","","","","","","","","","","","","","","","","","","","","","","","","","","","","","","","","","","","","","","","","","","","","","35840","North Port-Sarasota-Bradenton, FL","TRUE","412","North Port-Sarasota, FL"
"Hodam","Hodam","","WV","West Virginia","54101","Webster","54101","Webster","38.6204","-80.3826","","","3.9","point","FALSE","FALSE","FALSE","FALSE","America/New_York","5","26222","1840121509","","","","","","","","","","","","","","","","","","","","","","","","","","","","","","","","","","","","","","","","","","","","","","","","","","","","","","","","","","","","","","","","","","FALSE","",""
"Wadesboro","Wadesboro","","FL","Florida","12073","Leon","12073","Leon","30.5052","-84.0657","","","76.7","point","FALSE","FALSE","FALSE","FALSE","America/New_York","4","32317","1840047358","","","","","","","","","","","","","","","","","","","","","","","","","","","","","","","","","","","","","","","","","","","","","","","","","","","","","","","","","","","","","","","","45220","Tallahassee, FL","TRUE","",""
"Wahoo","Wahoo","","FL","Florida","12119","Sumter","12119","Sumter","28.6905","-82.1956","","","20.3","point","FALSE","FALSE","FALSE","FALSE","America/New_York","4","33513","1840047359","","","","","","","","","","","","","","","","","","","","","","","","","","","","","","","","","","","","","","","","","","","","","","","","","","","","","","","","","","","","","","","","45540","The Villages, FL","TRUE","422","Orlando-Lakeland-Deltona, FL"
"Vista","Vista","","FL","Florida","12075","Levy","12075","Levy","29.3769","-83.0482","","","17.9","point","FALSE","FALSE","FALSE","FALSE","America/New_York","4","32626","1840047356","","","","","","","","","","","","","","","","","","","","","","","","","","","","","","","","","","","","","","","","","","","","","","","","","","","","","","","","","","","","","","","","23540","Gainesville, FL","TRUE","264","Gainesville-Lake City, FL"
"Wacahoota","Wacahoota","","FL","Florida","12001","Alachua","12001","Alachua","29.5566","-82.3909","","","14.2","point","FALSE","FALSE","FALSE","FALSE","America/New_York","4","32667","1840047357","","","","","","","","","","","","","","","","","","","","","","","","","","","","","","","","","","","","","","","","","","","","","","","","","","","","","","","","","","","","","","","","23540","Gainesville, FL","TRUE","264","Gainesville-Lake City, FL"
"Hopemont","Hopemont","","WV","West Virginia","54077","Preston","54077","Preston","39.4373","-79.5173","","","150.2","point","FALSE","FALSE","FALSE","FALSE","America/New_York","4","26764","1840121512","","","","","","","","","","","","","","","","","","","","","","","","","","","","","","","","","","","","","","","","","","","","","","","","","","","","","","","","","","","","","","","","34060","Morgantown, WV","TRUE","390","Morgantown-Fairmont, WV"
"Watson","Watson","","FL","Florida","12099","Palm Beach","12099","Palm Beach","26.6906","-80.8306","","","0.0","point","FALSE","FALSE","FALSE","FALSE","America/New_York","5","33440","1840047361","","","","","","","","","","","","","","","","","","","","","","","","","","","","","","","","","","","","","","","","","","","","","","","","","","","","","","","","","","","","","","","","33100","Miami-Fort Lauderdale-Pompano Beach, FL","TRUE","370","Miami-Port St. Lucie-Fort Lauderdale, FL"
"Wilsonville","Wilsonville","","NC","North Carolina","37037","Chatham","37037","Chatham","35.7365","-79.0003","","","7.8","point","FALSE","FALSE","FALSE","FALSE","America/New_York","5","27502","1840088837","","","","","","","","","","","","","","","","","","","","","","","","","","","","","","","","","","","","","","","","","","","","","","","","","","","","","","","","","","","","","","","","20500","Durham-Chapel Hill, NC","TRUE","450","Raleigh-Durham-Cary, NC"
"Goodloe","Goodloe","","KY","Kentucky","21071","Floyd","21071","Floyd","37.6037","-82.8627","","","69.1","point","FALSE","FALSE","FALSE","FALSE","America/New_York","4","41616","1840061421","","","","","","","","","","","","","","","","","","","","","","","","","","","","","","","","","","","","","","","","","","","","","","","","","","","","","","","","","","","","","","","","","","FALSE","",""
"Beacon Addition","Beacon Addition","","AR","Arkansas","05007","Benton","05007","Benton","36.3334","-93.9985","","","411.4","point","FALSE","FALSE","FALSE","FALSE","America/Chicago","4","72756","1840039152","","","","","","","","","","","","","","","","","","","","","","","","","","","","","","","","","","","","","","","","","","","","","","","","","","","","","","","","","","","","","","","","22220","Fayetteville-Springdale-Rogers, AR","TRUE","",""
"Goochtown","Goochtown","","KY","Kentucky","21199","Pulaski","21199","Pulaski","37.3217","-84.5869","","","20.2","point","FALSE","FALSE","FALSE","FALSE","America/New_York","4","42567","1840061420","","","","","","","","","","","","","","","","","","","","","","","","","","","","","","","","","","","","","","","","","","","","","","","","","","","","","","","","","","","","","","","","43700","Somerset, KY","FALSE","",""
"Big Bay","Big Bay","","IL","Illinois","17127","Massac","17127","Massac","37.3167","-88.7217","","","12.4","point","FALSE","FALSE","FALSE","FALSE","America/Chicago","4","62960","1840051018","","","","","","","","","","","","","","","","","","","","","","","","","","","","","","","","","","","","","","","","","","","","","","","","","","","","","","","","","","","","","","","","16060","Carbondale-Marion, IL","TRUE","",""
"Bible Grove","Bible Grove","","IL","Illinois","17025","Clay","17025","Clay","38.8720","-88.4462","","","55.4","point","FALSE","FALSE","FALSE","FALSE","America/Chicago","4","62858","1840051017","","","","","","","","","","","","","","","","","","","","","","","","","","","","","","","","","","","","","","","","","","","","","","","","","","","","","","","","","","","","","","","","","","FALSE","",""
"Parktowne","Parktowne","","MD","Maryland","24005","Baltimore","24005","Baltimore","39.3737","-76.5236","","","1117.3","point","FALSE","FALSE","FALSE","FALSE","America/New_York","4","21234","1840068208","","","","","","","","","","","","","","","","","","","","","","","","","","","","","","","","","","","","","","","","","","","","","","","","","","","","","","","","","","","","","","","","12580","Baltimore-Columbia-Towson, MD","TRUE","548","Washington-Baltimore-Arlington, DC-MD-VA-WV-PA"
"Beckleysville","Beckleysville","","MD","Maryland","24005","Baltimore","24005","Baltimore","39.6418","-76.7780","","","42.5","point","FALSE","FALSE","FALSE","FALSE","America/New_York","4","21074","1840066922","","","","","","","","","","","","","","","","","","","","","","","","","","","","","","","","","","","","","","","","","","","","","","","","","","","","","","","","","","","","","","","","12580","Baltimore-Columbia-Towson, MD","TRUE","548","Washington-Baltimore-Arlington, DC-MD-VA-WV-PA"
"Alma","Alma","","OH","Ohio","39141","Ross","39141","Ross","39.1881","-82.9788","","","101.6","point","FALSE","FALSE","FALSE","FALSE","America/New_York","4","45690","1840092442","","","","","","","","","","","","","","","","","","","","","","","","","","","","","","","","","","","","","","","","","","","","","","","","","","","","","","","","","","","","","","","","17060","Chillicothe, OH","FALSE","198","Columbus-Marion-Zanesville, OH"
"Alton","Alton","","OH","Ohio","39049","Franklin","39049","Franklin","39.9503","-83.1746","","","109.1","point","FALSE","FALSE","FALSE","FALSE","America/New_York","4","43119","1840092444","","","","","","","","","","","","","","","","","","","","","","","","","","","","","","","","","","","","","","","","","","","","","","","","","","","","","","","","","","","","","","","","18140","Columbus, OH","TRUE","198","Columbus-Marion-Zanesville, OH"
"Beantown","Beantown","","MD","Maryland","24017","Charles","24017","Charles","38.6146","-76.9414","","","1670.3","point","FALSE","FALSE","FALSE","FALSE","America/New_York","4","20603","1840066919","","","","","","","","","","","","","","","","","","","","","","","","","","","","","","","","","","","","","","","","","","","","","","","","","","","","","","","","","","","","","","","","47900","Washington-Arlington-Alexandria, DC-VA-MD-WV","TRUE","548","Washington-Baltimore-Arlington, DC-MD-VA-WV-PA"
"Willow Spring","Willow Spring","","AZ","Arizona","04025","Yavapai","04025","Yavapai","34.6700","-112.8632","","","0.0","point","FALSE","FALSE","FALSE","FALSE","America/Phoenix","5","86338","1840038497","","","","","","","","","","","","","","","","","","","","","","","","","","","","","","","","","","","","","","","","","","","","","","","","","","","","","","","","","","","","","","","","39150","Prescott Valley-Prescott, AZ","TRUE","",""
"Beacon Hill","Beacon Hill","","MD","Maryland","24003","Anne Arundel","24003","Anne Arundel","39.0423","-76.4200","","","203.9","point","FALSE","FALSE","FALSE","FALSE","America/New_York","4","21409","1840066918","","","","","","","","","","","","","","","","","","","","","","","","","","","","","","","","","","","","","","","","","","","","","","","","","","","","","","","","","","","","","","","","12580","Baltimore-Columbia-Towson, MD","TRUE","548","Washington-Baltimore-Arlington, DC-MD-VA-WV-PA"
"Echo","Echo","","AL","Alabama","01045","Dale","01045","Dale","31.4757","-85.4658","","","26.4","point","FALSE","FALSE","FALSE","FALSE","America/Chicago","4","36360","1840023725","","","","","","","","","","","","","","","","","","","","","","","","","","","","","","","","","","","","","","","","","","","","","","","","","","","","","","","","","","","","","","","","37120","Ozark, AL","FALSE","222","Dothan-Ozark, AL"
"Echola","Echola","","AL","Alabama","01125","Tuscaloosa","01125","Tuscaloosa","33.3448","-87.7895","","","25.2","point","FALSE","FALSE","FALSE","FALSE","America/Chicago","4","35458","1840041085","","","","","","","","","","","","","","","","","","","","","","","","","","","","","","","","","","","","","","","","","","","","","","","","","","","","","","","","","","","","","","","","46220","Tuscaloosa, AL","TRUE","",""
"Abney","Abney","","MS","Mississippi","28057","Itawamba","28057","Itawamba","34.2134","-88.4870","","","15.0","point","FALSE","FALSE","FALSE","FALSE","America/Chicago","4","38843","1840074656","","","","","","","","","","","","","","","","","","","","","","","","","","","","","","","","","","","","","","","","","","","","","","","","","","","","","","","","","","","","","","","","46180","Tupelo, MS","FALSE","539","Tupelo-Corinth, MS"
"Orion","Orion","","MS","Mississippi","28093","Marshall","28093","Marshall","34.7154","-89.6520","","","19.0","point","FALSE","FALSE","FALSE","FALSE","America/Chicago","4","38611","1840074655","","","","","","","","","","","","","","","","","","","","","","","","","","","","","","","","","","","","","","","","","","","","","","","","","","","","","","","","","","","","","","","","32820","Memphis, TN-MS-AR","TRUE","368","Memphis-Forrest City, TN-MS-AR"
"Aiken","Aiken","","MS","Mississippi","28137","Tate","28137","Tate","34.6309","-89.7398","","","14.4","point","FALSE","FALSE","FALSE","FALSE","America/Chicago","4","38668","1840074654","","","","","","","","","","","","","","","","","","","","","","","","","","","","","","","","","","","","","","","","","","","","","","","","","","","","","","","","","","","","","","","","32820","Memphis, TN-MS-AR","TRUE","368","Memphis-Forrest City, TN-MS-AR"
"Addie","Addie","","MS","Mississippi","28055","Issaquena","28055","Issaquena","32.9873","-91.0759","","","0.0","point","FALSE","FALSE","FALSE","FALSE","America/Chicago","5","38744","1840074658","","","","","","","","","","","","","","","","","","","","","","","","","","","","","","","","","","","","","","","","","","","","","","","","","","","","","","","","","","","","","","","","","","FALSE","",""
"Acme","Acme","","MS","Mississippi","28061","Jasper","28061","Jasper","31.9677","-89.1734","","","9.1","point","FALSE","FALSE","FALSE","FALSE","America/Chicago","5","39422","1840074657","","","","","","","","","","","","","","","","","","","","","","","","","","","","","","","","","","","","","","","","","","","","","","","","","","","","","","","","","","","","","","","","29860","Laurel, MS","FALSE","279","Hattiesburg-Laurel, MS"
"McKinneysburg","McKinneysburg","","KY","Kentucky","21191","Pendleton","21191","Pendleton","38.5973","-84.2652","","","3.4","point","FALSE","FALSE","FALSE","FALSE","America/New_York","5","41040","1840061842","","","","","","","","","","","","","","","","","","","","","","","","","","","","","","","","","","","","","","","","","","","","","","","","","","","","","","","","","","","","","","","","17140","Cincinnati, OH-KY-IN","TRUE","178","Cincinnati-Wilmington-Maysville, OH-KY-IN"
"Jabez","Jabez","","KY","Kentucky","21207","Russell","21207","Russell","36.9870","-84.8936","","","11.8","point","FALSE","FALSE","FALSE","FALSE","America/Chicago","4","42544","1840061617","","","","","","","","","","","","","","","","","","","","","","","","","","","","","","","","","","","","","","","","","","","","","","","","","","","","","","","","","","","","","","","","43700","Somerset, KY","FALSE","",""
"Cranberry Creek","Cranberry Creek","","NY","New York","36035","Fulton","36035","Fulton","43.1556","-74.2196","","","112.9","point","FALSE","FALSE","FALSE","FALSE","America/New_York","4","12117","1840083417","","","","","","","","","","","","","","","","","","","","","","","","","","","","","","","","","","","","","","","","","","","","","","","","","","","","","","","","","","","","","","","","24100","Gloversville, NY","FALSE","104","Albany-Schenectady, NY"
"Highland","Highland","","WA","Washington","53005","Benton","53005","Benton","46.1362","-119.1272","","","0.3","point","FALSE","FALSE","FALSE","FALSE","America/Los_Angeles","3","99337","1840141802","","","","","","","","","","","","","","","","","","","","","","","","","","","","","","","","","","","","","","","","","","","","","","","","","","","","","","","","","","","","","","","","28420","Kennewick-Richland, WA","TRUE","313","Kennewick-Richland-Walla Walla, WA"
"Atlee","Atlee","","OK","Oklahoma","40067","Jefferson","40067","Jefferson","34.0934","-97.6325","","","0.7","point","FALSE","FALSE","FALSE","FALSE","America/Chicago","5","73456","1840097194","","","","","","","","","","","","","","","","","","","","","","","","","","","","","","","","","","","","","","","","","","","","","","","","","","","","","","","","","","","","","","","","","","FALSE","",""
"Yuba","Yuba","","MI","Michigan","26055","Grand Traverse","26055","Grand Traverse","44.8233","-85.4592","","","58.6","point","FALSE","FALSE","FALSE","FALSE","America/Detroit","4","49690","1840127740","","","","","","","","","","","","","","","","","","","","","","","","","","","","","","","","","","","","","","","","","","","","","","","","","","","","","","","","","","","","","","","","45900","Traverse City, MI","FALSE","",""
"Woodlawn","Woodlawn","","MI","Michigan","26041","Delta","26041","Delta","45.9444","-87.3004","","","0.6","point","FALSE","FALSE","FALSE","FALSE","America/Detroit","5","49818","1840127735","","","","","","","","","","","","","","","","","","","","","","","","","","","","","","","","","","","","","","","","","","","","","","","","","","","","","","","","","","","","","","","","21540","Escanaba, MI","FALSE","",""
"Witbeck","Witbeck","","MI","Michigan","26103","Marquette","26103","Marquette","46.3152","-88.0043","","","5.1","point","FALSE","FALSE","FALSE","FALSE","America/Detroit","5","49879","1840127733","","","","","","","","","","","","","","","","","","","","","","","","","","","","","","","","","","","","","","","","","","","","","","","","","","","","","","","","","","","","","","","","32100","Marquette, MI","FALSE","",""
"Witch Lake","Witch Lake","","MI","Michigan","26103","Marquette","26103","Marquette","46.2755","-88.0190","","","7.0","point","FALSE","FALSE","FALSE","FALSE","America/Detroit","5","49879","1840127734","","","","","","","","","","","","","","","","","","","","","","","","","","","","","","","","","","","","","","","","","","","","","","","","","","","","","","","","","","","","","","","","32100","Marquette, MI","FALSE","",""
"Yates","Yates","","MI","Michigan","26125","Oakland","26125","Oakland","42.6736","-83.0958","","","514.5","point","FALSE","FALSE","FALSE","FALSE","America/Detroit","4","48307","1840127739","","","","","","","","","","","","","","","","","","","","","","","","","","","","","","","","","","","","","","","","","","","","","","","","","","","","","","","","","","","","","","","","19820","Detroit-Warren-Dearborn, MI","TRUE","220","Detroit-Warren-Ann Arbor, MI"
"Woods","Woods","","MI","Michigan","26073","Isabella","26073","Isabella","43.7556","-84.8884","","","8.5","point","FALSE","FALSE","FALSE","FALSE","America/Detroit","5","48622","1840127736","","","","","","","","","","","","","","","","","","","","","","","","","","","","","","","","","","","","","","","","","","","","","","","","","","","","","","","","","","","","","","","","34380","Mount Pleasant, MI","FALSE","394","Mount Pleasant-Alma, MI"
"Woodville","Woodville","","MI","Michigan","26017","Bay","26017","Bay","43.8672","-84.0253","","","15.0","point","FALSE","FALSE","FALSE","FALSE","America/Detroit","4","48650","1840141806","","","","","","","","","","","","","","","","","","","","","","","","","","","","","","","","","","","","","","","","","","","","","","","","","","","","","","","","","","","","","","","","13020","Bay City, MI","TRUE","474","Saginaw-Midland-Bay City, MI"
"Jackstown","Jackstown","","KY","Kentucky","21017","Bourbon","21017","Bourbon","38.2448","-84.0585","","","5.8","point","FALSE","FALSE","FALSE","FALSE","America/New_York","5","40311","1840030676","","","","","","","","","","","","","","","","","","","","","","","","","","","","","","","","","","","","","","","","","","","","","","","","","","","","","","","","","","","","","","","","30460","Lexington-Fayette, KY","TRUE","336","Lexington-Fayette--Richmond--Frankfort, KY"
"Laurel Brook","Laurel Brook","","TN","Tennessee","47143","Rhea","47143","Rhea","35.4945","-85.1122","","","45.9","point","FALSE","FALSE","FALSE","FALSE","America/New_York","4","37321","1840110035","","","","","","","","","","","","","","","","","","","","","","","","","","","","","","","","","","","","","","","","","","","","","","","","","","","","","","","","","","","","","","","","19420","Dayton, TN","FALSE","174","Chattanooga-Cleveland-Dalton, TN-GA"
"P≈çhƒÅkupu","Pohakupu","","HI","Hawaii","15003","Honolulu","15003","Honolulu","21.3815","-157.7521","","","2263.4","point","FALSE","FALSE","FALSE","FALSE","Pacific/Honolulu","4","96734","1840050186","","","","","","","","","","","","","","","","","","","","","","","","","","","","","","","","","","","","","","","","","","","","","","","","","","","","","","","","","","","","","","","","46520","Urban Honolulu, HI","TRUE","",""
"Whites","Whites","","OH","Ohio","39045","Fairfield","39045","Fairfield","39.7048","-82.5910","","","261.4","point","FALSE","FALSE","FALSE","FALSE","America/New_York","4","43130","1840092942","","","","","","","","","","","","","","","","","","","","","","","","","","","","","","","","","","","","","","","","","","","","","","","","","","","","","","","","","","","","","","","","18140","Columbus, OH","TRUE","198","Columbus-Marion-Zanesville, OH"
"Whitetree","Whitetree","","OH","Ohio","39061","Hamilton","39061","Hamilton","39.2134","-84.4238","","","383.8","point","FALSE","FALSE","FALSE","FALSE","America/New_York","4","45236","1840092943","","","","","","","","","","","","","","","","","","","","","","","","","","","","","","","","","","","","","","","","","","","","","","","","","","","","","","","","","","","","","","","","17140","Cincinnati, OH-KY-IN","TRUE","178","Cincinnati-Wilmington-Maysville, OH-KY-IN"
"Westville","Westville","","OH","Ohio","39029","Columbiana","39029","Columbiana","40.9014","-80.9940","","","50.7","point","FALSE","FALSE","FALSE","FALSE","America/New_York","4","44609","1840141809","","","","","","","","","","","","","","","","","","","","","","","","","","","","","","","","","","","","","","","","","","","","","","","","","","","","","","","","","","","","","","","","41400","Salem, OH","FALSE","566","Youngstown-Warren, OH-PA"
"Westwood","Westwood","","OH","Ohio","39169","Wayne","39169","Wayne","40.7814","-81.9599","","","560.6","point","FALSE","FALSE","FALSE","FALSE","America/New_York","4","44691","1840092939","","","","","","","","","","","","","","","","","","","","","","","","","","","","","","","","","","","","","","","","","","","","","","","","","","","","","","","","","","","","","","","","49300","Wooster, OH","FALSE","184","Cleveland-Akron-Canton, OH"
"Whipple Heights","Whipple Heights","","OH","Ohio","39151","Stark","39151","Stark","40.8162","-81.4337","","","808.3","point","FALSE","FALSE","FALSE","FALSE","America/New_York","4","44708","1840092940","","","","","","","","","","","","","","","","","","","","","","","","","","","","","","","","","","","","","","","","","","","","","","","","","","","","","","","","","","","","","","","","15940","Canton-Massillon, OH","TRUE","184","Cleveland-Akron-Canton, OH"
