"city","city_ascii","city_alt","state_id","state_name","county_fips","county_name","county_fips_all","county_name_all","lat","lng","population","population_proper","density","source","military","incorporated","cdp","township","timezone","ranking","zips","id","age_median","age_under_10","age_10_to_19","age_20s","age_30s","age_40s","age_50s","age_60s","age_70s","age_over_80","age_over_65","age_18_to_24","age_over_18","male","female","married","divorced","never_married","widowed","family_size","family_dual_income","income_household_median","income_household_under_5","income_household_5_to_10","income_household_10_to_15","income_household_15_to_20","income_household_20_to_25","income_household_25_to_35","income_household_35_to_50","income_household_50_to_75","income_household_75_to_100","income_household_100_to_150","income_household_150_over","income_household_six_figure","income_individual_median","home_ownership","housing_units","home_value","rent_median","rent_burden","education_less_highschool","education_highschool","education_some_college","education_bachelors","education_graduate","education_college_or_above","education_stem_degree","labor_force_participation","unemployment_rate","race_white","race_black","race_asian","race_native","race_pacific","race_other","race_multiple","hispanic","disabled","poverty","limited_english","commute_time","health_uninsured","veteran","cbsa_fips","cbsa_name","cbsa_metro","csa_fips","csa_name"
"Waltz","Waltz","","MI","Michigan","26163","Wayne","26163","Wayne","42.1003","-83.3922","","","113.4","point","FALSE","FALSE","FALSE","FALSE","America/Detroit","4","48164","1840031694","","","","","","","","","","","","","","","","","","","","","","","","","","","","","","","","","","","","","","","","","","","","","","","","","","","","","","","","","","","","","","","","19820","Detroit-Warren-Dearborn, MI","TRUE","220","Detroit-Warren-Ann Arbor, MI"
"Iona","Iona","","TX","Texas","48367","Parker","48367","Parker","32.6812","-97.5542","","","23.6","point","FALSE","FALSE","FALSE","FALSE","America/Chicago","4","76126","1840113137","","","","","","","","","","","","","","","","","","","","","","","","","","","","","","","","","","","","","","","","","","","","","","","","","","","","","","","","","","","","","","","","19100","Dallas-Fort Worth-Arlington, TX","TRUE","206","Dallas-Fort Worth, TX-OK"
"Jackson","Jackson","","TX","Texas","48315","Marion","48315","Marion","32.7363","-94.5813","","","22.9","point","FALSE","FALSE","FALSE","FALSE","America/Chicago","4","75657","1840146230","","","","","","","","","","","","","","","","","","","","","","","","","","","","","","","","","","","","","","","","","","","","","","","","","","","","","","","","","","","","","","","","30980","Longview, TX","TRUE","",""
"Jacobia","Jacobia","","TX","Texas","48231","Hunt","48231","Hunt","33.2201","-96.0544","","","15.0","point","FALSE","FALSE","FALSE","FALSE","America/Chicago","4","75401","1840113140","","","","","","","","","","","","","","","","","","","","","","","","","","","","","","","","","","","","","","","","","","","","","","","","","","","","","","","","","","","","","","","","19100","Dallas-Fort Worth-Arlington, TX","TRUE","206","Dallas-Fort Worth, TX-OK"
"Amherst","Amherst","","MA","Massachusetts","25015","Hampshire","25015","Hampshire","42.3645","-72.5069","","","194.4","point","FALSE","TRUE","FALSE","TRUE","America/New_York","4","01002","1840053454","","","","","","","","","","","","","","","","","","","","","","","","","","","","","","","","","","","","","","","","","","","","","","","","","","","","","","","","","","","","","","","","44140","Springfield, MA","TRUE","",""
"Staffordtown","Staffordtown","","TN","Tennessee","47139","Polk","47139","Polk","34.9981","-84.3885","","","21.9","point","FALSE","FALSE","FALSE","FALSE","America/New_York","4","37317","1840109046","","","","","","","","","","","","","","","","","","","","","","","","","","","","","","","","","","","","","","","","","","","","","","","","","","","","","","","","","","","","","","","","17420","Cleveland, TN","TRUE","174","Chattanooga-Cleveland-Dalton, TN-GA"
"Rymer","Rymer","","WV","West Virginia","54049","Marion","54049","Marion","39.5409","-80.4401","","","23.4","point","FALSE","FALSE","FALSE","FALSE","America/New_York","4","26582","1840121214","","","","","","","","","","","","","","","","","","","","","","","","","","","","","","","","","","","","","","","","","","","","","","","","","","","","","","","","","","","","","","","","21900","Fairmont, WV","FALSE","390","Morgantown-Fairmont, WV"
"Davis Chapel","Davis Chapel","","TN","Tennessee","47017","Carroll","47017","Carroll","35.9365","-88.4056","","","21.7","point","FALSE","FALSE","FALSE","FALSE","America/Chicago","4","38344","1840112290","","","","","","","","","","","","","","","","","","","","","","","","","","","","","","","","","","","","","","","","","","","","","","","","","","","","","","","","","","","","","","","","27180","Jackson, TN","TRUE","297","Jackson-Brownsville, TN"
"Saint Francis","Saint Francis","","KY","Kentucky","21155","Marion","21155","Marion","37.6265","-85.4277","","","23.9","point","FALSE","FALSE","FALSE","FALSE","America/New_York","4","40062","1840030787","","","","","","","","","","","","","","","","","","","","","","","","","","","","","","","","","","","","","","","","","","","","","","","","","","","","","","","","","","","","","","","","12680","Bardstown, KY","FALSE","350","Louisville/Jefferson County--Elizabethtown--Bardstown, KY-IN"
"Whitehouse","Whitehouse","","AL","Alabama","01093","Marion","01093","Marion","34.1215","-87.7322","","","23.0","point","FALSE","FALSE","FALSE","FALSE","America/Chicago","4","35565","1840041819","","","","","","","","","","","","","","","","","","","","","","","","","","","","","","","","","","","","","","","","","","","","","","","","","","","","","","","","","","","","","","","","","","FALSE","",""
"Little Fountain","Little Fountain","","VI","Virgin Islands","78010","St. Croix","78010","St. Croix","17.7516","-64.7938","","","128.9","point","FALSE","FALSE","FALSE","FALSE","America/St_Thomas","4","00850","1850127055","","","","","","","","","","","","","","","","","","","","","","","","","","","","","","","","","","","","","","","","","","","","","","","","","","","","","","","","","","","","","","","","","","FALSE","",""
"Limetree","Limetree","","VI","Virgin Islands","78010","St. Croix","78010","St. Croix","17.7369","-64.7643","","","505.5","point","FALSE","FALSE","FALSE","FALSE","America/St_Thomas","4","00820","1850127054","","","","","","","","","","","","","","","","","","","","","","","","","","","","","","","","","","","","","","","","","","","","","","","","","","","","","","","","","","","","","","","","","","FALSE","",""
"Osage","Osage","","TN","Tennessee","47079","Henry","47079","Henry","36.3559","-88.4117","","","26.1","point","FALSE","FALSE","FALSE","FALSE","America/Chicago","4","38242","1840110325","","","","","","","","","","","","","","","","","","","","","","","","","","","","","","","","","","","","","","","","","","","","","","","","","","","","","","","","","","","","","","","","37540","Paris, TN","FALSE","",""
"Monohaa","Monohaa","","HI","Hawaii","15001","Hawaii","15001","Hawaii","19.5479","-155.8568","","","17.4","point","FALSE","FALSE","FALSE","FALSE","Pacific/Honolulu","4","96750","1840050269","","","","","","","","","","","","","","","","","","","","","","","","","","","","","","","","","","","","","","","","","","","","","","","","","","","","","","","","","","","","","","","","25900","Hilo, HI","FALSE","",""
"Mokae","Mokae","","HI","Hawaii","15009","Maui","15009","Maui","20.7177","-155.9927","","","11.1","point","FALSE","FALSE","FALSE","FALSE","Pacific/Honolulu","4","96713","1840050268","","","","","","","","","","","","","","","","","","","","","","","","","","","","","","","","","","","","","","","","","","","","","","","","","","","","","","","","","","","","","","","","27980","Kahului-Wailuku-Lahaina, HI","TRUE","",""
"Ostella","Ostella","","TN","Tennessee","47117","Marshall","47117","Marshall","35.3229","-86.7919","","","13.0","point","FALSE","FALSE","FALSE","FALSE","America/Chicago","4","37047","1840110326","","","","","","","","","","","","","","","","","","","","","","","","","","","","","","","","","","","","","","","","","","","","","","","","","","","","","","","","","","","","","","","","30280","Lewisburg, TN","FALSE","400","Nashville-Davidson--Murfreesboro, TN"
"Makalawena","Makalawena","","HI","Hawaii","15001","Hawaii","15001","Hawaii","19.7917","-156.0269","","","0.0","point","FALSE","FALSE","FALSE","FALSE","Pacific/Honolulu","5","96740","1840050267","","","","","","","","","","","","","","","","","","","","","","","","","","","","","","","","","","","","","","","","","","","","","","","","","","","","","","","","","","","","","","","","25900","Hilo, HI","FALSE","",""
"Hoadleys","Hoadleys","","PA","Pennsylvania","42127","Wayne","42127","Wayne","41.5093","-75.2855","","","71.5","point","FALSE","FALSE","FALSE","FALSE","America/New_York","4","18431","1840099730","","","","","","","","","","","","","","","","","","","","","","","","","","","","","","","","","","","","","","","","","","","","","","","","","","","","","","","","","","","","","","","","35620","New York-Newark-Jersey City, NY-NJ-PA","TRUE","408","New York-Newark, NY-NJ-CT-PA"
"Ryan Village","Ryan Village","","MN","Minnesota","27021","Cass","27021","Cass","47.3588","-94.2891","","","6.1","point","FALSE","FALSE","FALSE","FALSE","America/Chicago","5","56626","1840072034","","","","","","","","","","","","","","","","","","","","","","","","","","","","","","","","","","","","","","","","","","","","","","","","","","","","","","","","","","","","","","","","14660","Brainerd, MN","FALSE","",""
"Peru","Peru","","WV","West Virginia","54031","Hardy","54031","Hardy","38.8409","-79.0742","","","11.6","point","FALSE","FALSE","FALSE","FALSE","America/New_York","4","26838","1840121877","","","","","","","","","","","","","","","","","","","","","","","","","","","","","","","","","","","","","","","","","","","","","","","","","","","","","","","","","","","","","","","","25500","Harrisonburg, VA","TRUE","277","Harrisonburg-Staunton, VA"
"East Richford","East Richford","","NY","New York","36107","Tioga","36107","Tioga","42.3715","-76.1541","","","8.4","point","FALSE","FALSE","FALSE","FALSE","America/New_York","5","13835","1840086244","","","","","","","","","","","","","","","","","","","","","","","","","","","","","","","","","","","","","","","","","","","","","","","","","","","","","","","","","","","","","","","","13780","Binghamton, NY","TRUE","",""
"Democrat","Democrat","","AR","Arkansas","05123","St. Francis","05123","St. Francis","35.0204","-90.4251","","","0.0","point","FALSE","FALSE","FALSE","FALSE","America/Chicago","5","72346","1840040727","","","","","","","","","","","","","","","","","","","","","","","","","","","","","","","","","","","","","","","","","","","","","","","","","","","","","","","","","","","","","","","","22620","Forrest City, AR","FALSE","368","Memphis-Forrest City, TN-MS-AR"
"Drexel","Drexel","","MT","Montana","30061","Mineral","30061","Mineral","47.3266","-115.2526","","","0.1","point","FALSE","FALSE","FALSE","FALSE","America/Denver","5","59866","1840078213","","","","","","","","","","","","","","","","","","","","","","","","","","","","","","","","","","","","","","","","","","","","","","","","","","","","","","","","","","","","","","","","","","FALSE","",""
"Lakeside","Lakeside","","IN","Indiana","18097","Marion","18097","Marion","39.8842","-86.2850","","","501.3","point","FALSE","FALSE","FALSE","FALSE","America/Indiana/Indianapolis","4","46278","1840146233","","","","","","","","","","","","","","","","","","","","","","","","","","","","","","","","","","","","","","","","","","","","","","","","","","","","","","","","","","","","","","","","26900","Indianapolis-Carmel-Anderson, IN","TRUE","294","Indianapolis-Carmel-Muncie, IN"
"Wildie","Wildie","","KY","Kentucky","21203","Rockcastle","21203","Rockcastle","37.4234","-84.3022","","","48.4","point","FALSE","FALSE","FALSE","FALSE","America/New_York","4","40456","1840063121","","","","","","","","","","","","","","","","","","","","","","","","","","","","","","","","","","","","","","","","","","","","","","","","","","","","","","","","","","","","","","","","","","FALSE","",""
"Lake View","Lake View","","IN","Indiana","18127","Porter","18127","Porter","41.5248","-87.0517","","","514.2","point","FALSE","FALSE","FALSE","FALSE","America/Chicago","4","46383","1840146234","","","","","","","","","","","","","","","","","","","","","","","","","","","","","","","","","","","","","","","","","","","","","","","","","","","","","","","","","","","","","","","","16980","Chicago-Naperville-Elgin, IL-IN-WI","TRUE","176","Chicago-Naperville, IL-IN-WI"
"Austin","Austin","","TN","Tennessee","47071","Hardin","47071","Hardin","35.2017","-88.2392","","","645.4","point","FALSE","FALSE","FALSE","FALSE","America/Chicago","4","38372","1840109283","","","","","","","","","","","","","","","","","","","","","","","","","","","","","","","","","","","","","","","","","","","","","","","","","","","","","","","","","","","","","","","","","","FALSE","",""
"Russellville","Russellville","","VT","Vermont","50021","Rutland","50021","Rutland","43.3820","-72.8415","","","2.6","point","FALSE","FALSE","FALSE","FALSE","America/New_York","5","05730","1840115292","","","","","","","","","","","","","","","","","","","","","","","","","","","","","","","","","","","","","","","","","","","","","","","","","","","","","","","","","","","","","","","","40860","Rutland, VT","FALSE","",""
"Camp Ashmere","Camp Ashmere","","MA","Massachusetts","25003","Berkshire","25003","Berkshire","42.4443","-73.0787","","","103.7","point","FALSE","FALSE","FALSE","FALSE","America/New_York","4","01235","1840068689","","","","","","","","","","","","","","","","","","","","","","","","","","","","","","","","","","","","","","","","","","","","","","","","","","","","","","","","","","","","","","","","38340","Pittsfield, MA","TRUE","",""
"Boothe","Boothe","","AR","Arkansas","05127","Scott","05127","Scott","35.0440","-94.1174","","","30.3","point","FALSE","FALSE","FALSE","FALSE","America/Chicago","4","72927","1840040331","","","","","","","","","","","","","","","","","","","","","","","","","","","","","","","","","","","","","","","","","","","","","","","","","","","","","","","","","","","","","","","","22900","Fort Smith, AR-OK","TRUE","",""
"Bovine","Bovine","","AR","Arkansas","05003","Ashley","05003","Ashley","33.1785","-91.8818","","","1.1","point","FALSE","FALSE","FALSE","FALSE","America/Chicago","5","71635","1840040332","","","","","","","","","","","","","","","","","","","","","","","","","","","","","","","","","","","","","","","","","","","","","","","","","","","","","","","","","","","","","","","","","","FALSE","",""
"Boyd Hill","Boyd Hill","","AR","Arkansas","05073","Lafayette","05073","Lafayette","33.4448","-93.6710","","","2.8","point","FALSE","FALSE","FALSE","FALSE","America/Chicago","5","71845","1840040333","","","","","","","","","","","","","","","","","","","","","","","","","","","","","","","","","","","","","","","","","","","","","","","","","","","","","","","","","","","","","","","","45500","Texarkana, TX-AR","TRUE","",""
"Boydell","Boydell","","AR","Arkansas","05003","Ashley","05003","Ashley","33.3657","-91.4912","","","0.3","point","FALSE","FALSE","FALSE","FALSE","America/Chicago","5","71658","1840014979","","","","","","","","","","","","","","","","","","","","","","","","","","","","","","","","","","","","","","","","","","","","","","","","","","","","","","","","","","","","","","","","","","FALSE","",""
"Camp Wyoma","Camp Wyoma","","MA","Massachusetts","25003","Berkshire","25003","Berkshire","42.4284","-73.1254","","","106.3","point","FALSE","FALSE","FALSE","FALSE","America/New_York","4","01235","1840068688","","","","","","","","","","","","","","","","","","","","","","","","","","","","","","","","","","","","","","","","","","","","","","","","","","","","","","","","","","","","","","","","38340","Pittsfield, MA","TRUE","",""
"Millen","Millen","","WV","West Virginia","54027","Hampshire","54027","Hampshire","39.5184","-78.6300","","","39.0","point","FALSE","FALSE","FALSE","FALSE","America/New_York","4","26722","1840121098","","","","","","","","","","","","","","","","","","","","","","","","","","","","","","","","","","","","","","","","","","","","","","","","","","","","","","","","","","","","","","","","49020","Winchester, VA-WV","TRUE","548","Washington-Baltimore-Arlington, DC-MD-VA-WV-PA"
"Christs Rock","Christs Rock","","MD","Maryland","24019","Dorchester","24019","Dorchester","38.5446","-76.1030","","","80.1","point","FALSE","FALSE","FALSE","FALSE","America/New_York","4","21613","1840067078","","","","","","","","","","","","","","","","","","","","","","","","","","","","","","","","","","","","","","","","","","","","","","","","","","","","","","","","","","","","","","","","15700","Cambridge, MD","FALSE","480","Salisbury-Cambridge, MD-DE"
"Childs","Childs","","MD","Maryland","24015","Cecil","24015","Cecil","39.6462","-75.8716","","","157.6","point","FALSE","FALSE","FALSE","FALSE","America/New_York","4","21921","1840067077","","","","","","","","","","","","","","","","","","","","","","","","","","","","","","","","","","","","","","","","","","","","","","","","","","","","","","","","","","","","","","","","37980","Philadelphia-Camden-Wilmington, PA-NJ-DE-MD","TRUE","428","Philadelphia-Reading-Camden, PA-NJ-DE-MD"
"Gordonville","Gordonville","","SC","South Carolina","45089","Williamsburg","45089","Williamsburg","33.6868","-79.4453","","","8.8","point","FALSE","FALSE","FALSE","FALSE","America/New_York","5","29554","1840107337","","","","","","","","","","","","","","","","","","","","","","","","","","","","","","","","","","","","","","","","","","","","","","","","","","","","","","","","","","","","","","","","23860","Georgetown, SC","FALSE","396","Myrtle Beach-Conway, SC-NC"
"Goshen Hill","Goshen Hill","","SC","South Carolina","45087","Union","45087","Union","34.5212","-81.5632","","","15.7","point","FALSE","FALSE","FALSE","FALSE","America/New_York","4","29178","1840107338","","","","","","","","","","","","","","","","","","","","","","","","","","","","","","","","","","","","","","","","","","","","","","","","","","","","","","","","","","","","","","","","35140","Newberry, SC","FALSE","192","Columbia-Orangeburg-Newberry, SC"
"Virginia","Virginia","","ME","Maine","23017","Oxford","23017","Oxford","44.5306","-70.5459","","","574.0","point","FALSE","FALSE","FALSE","FALSE","America/New_York","4","04276","1840065501","","","","","","","","","","","","","","","","","","","","","","","","","","","","","","","","","","","","","","","","","","","","","","","","","","","","","","","","","","","","","","","","","","FALSE","",""
"Churchton","Churchton","","MD","Maryland","24003","Anne Arundel","24003","Anne Arundel","38.8026","-76.5369","","","207.7","point","FALSE","FALSE","FALSE","FALSE","America/New_York","4","20733","1840031324","","","","","","","","","","","","","","","","","","","","","","","","","","","","","","","","","","","","","","","","","","","","","","","","","","","","","","","","","","","","","","","","12580","Baltimore-Columbia-Towson, MD","TRUE","548","Washington-Baltimore-Arlington, DC-MD-VA-WV-PA"
"Churchville","Churchville","","MD","Maryland","24025","Harford","24025","Harford","39.5612","-76.2455","","","140.9","point","FALSE","FALSE","FALSE","FALSE","America/New_York","4","21028","1840031325","","","","","","","","","","","","","","","","","","","","","","","","","","","","","","","","","","","","","","","","","","","","","","","","","","","","","","","","","","","","","","","","12580","Baltimore-Columbia-Towson, MD","TRUE","548","Washington-Baltimore-Arlington, DC-MD-VA-WV-PA"
"Upperglade","Upperglade","","WV","West Virginia","54101","Webster","54101","Webster","38.4093","-80.5068","","","111.4","point","FALSE","FALSE","FALSE","FALSE","America/New_York","4","26206","1840121899","","","","","","","","","","","","","","","","","","","","","","","","","","","","","","","","","","","","","","","","","","","","","","","","","","","","","","","","","","","","","","","","","","FALSE","",""
"Hochheim","Hochheim","","TX","Texas","48123","DeWitt","48123","DeWitt","29.3125","-97.2917","","","13.0","point","FALSE","FALSE","FALSE","FALSE","America/Chicago","4","77995","1840036656","","","","","","","","","","","","","","","","","","","","","","","","","","","","","","","","","","","","","","","","","","","","","","","","","","","","","","","","","","","","","","","","","","FALSE","",""
"Blowing Springs","Blowing Springs","","TN","Tennessee","47001","Anderson","47001","Anderson","36.1351","-84.1510","","","115.6","point","FALSE","FALSE","FALSE","FALSE","America/New_York","4","37716","1840109360","","","","","","","","","","","","","","","","","","","","","","","","","","","","","","","","","","","","","","","","","","","","","","","","","","","","","","","","","","","","","","","","28940","Knoxville, TN","TRUE","315","Knoxville-Morristown-Sevierville, TN"
"Tesla","Tesla","","WV","West Virginia","54007","Braxton","54007","Braxton","38.6020","-80.7034","","","59.9","point","FALSE","FALSE","FALSE","FALSE","America/New_York","4","26601","1840123258","","","","","","","","","","","","","","","","","","","","","","","","","","","","","","","","","","","","","","","","","","","","","","","","","","","","","","","","","","","","","","","","","","FALSE","",""
"Waterford Works","Waterford Works","","NJ","New Jersey","34007","Camden","34007","Camden","39.7232","-74.8491","","","134.8","point","FALSE","FALSE","FALSE","FALSE","America/New_York","4","08089","1840033436","","","","","","","","","","","","","","","","","","","","","","","","","","","","","","","","","","","","","","","","","","","","","","","","","","","","","","","","","","","","","","","","37980","Philadelphia-Camden-Wilmington, PA-NJ-DE-MD","TRUE","428","Philadelphia-Reading-Camden, PA-NJ-DE-MD"
"Rands","Rands","","ID","Idaho","16025","Camas","16025","Camas","43.3443","-114.6526","","","1.2","point","FALSE","FALSE","FALSE","FALSE","America/Boise","5","83327","1840050866","","","","","","","","","","","","","","","","","","","","","","","","","","","","","","","","","","","","","","","","","","","","","","","","","","","","","","","","","","","","","","","","25200","Hailey, ID","FALSE","",""
"Shongum","Shongum","","NJ","New Jersey","34027","Morris","34027","Morris","40.8443","-74.5329","","","557.6","point","FALSE","FALSE","FALSE","FALSE","America/New_York","4","07869","1840081347","","","","","","","","","","","","","","","","","","","","","","","","","","","","","","","","","","","","","","","","","","","","","","","","","","","","","","","","","","","","","","","","35620","New York-Newark-Jersey City, NY-NJ-PA","TRUE","408","New York-Newark, NY-NJ-CT-PA"
"Shirley","Shirley","","NJ","New Jersey","34033","Salem","34033","Salem","39.5696","-75.2382","","","25.4","point","FALSE","FALSE","FALSE","FALSE","America/New_York","4","08318","1840081346","","","","","","","","","","","","","","","","","","","","","","","","","","","","","","","","","","","","","","","","","","","","","","","","","","","","","","","","","","","","","","","","37980","Philadelphia-Camden-Wilmington, PA-NJ-DE-MD","TRUE","428","Philadelphia-Reading-Camden, PA-NJ-DE-MD"
"Buck","Buck","","NC","North Carolina","37193","Wilkes","37193","Wilkes","36.1565","-81.2265","","","84.7","point","FALSE","FALSE","FALSE","FALSE","America/New_York","4","28697","1840089512","","","","","","","","","","","","","","","","","","","","","","","","","","","","","","","","","","","","","","","","","","","","","","","","","","","","","","","","","","","","","","","","35900","North Wilkesboro, NC","FALSE","",""
"Shippenport","Shippenport","","NJ","New Jersey","34027","Morris","34027","Morris","40.8984","-74.6691","","","66.6","point","FALSE","FALSE","FALSE","FALSE","America/New_York","4","07850","1840081345","","","","","","","","","","","","","","","","","","","","","","","","","","","","","","","","","","","","","","","","","","","","","","","","","","","","","","","","","","","","","","","","35620","New York-Newark-Jersey City, NY-NJ-PA","TRUE","408","New York-Newark, NY-NJ-CT-PA"
"Edgewood Lake","Edgewood Lake","","IN","Indiana","18133","Putnam","18133","Putnam","39.6395","-86.7992","","","60.5","point","FALSE","FALSE","FALSE","FALSE","America/Indiana/Indianapolis","4","46135","1840054631","","","","","","","","","","","","","","","","","","","","","","","","","","","","","","","","","","","","","","","","","","","","","","","","","","","","","","","","","","","","","","","","26900","Indianapolis-Carmel-Anderson, IN","TRUE","294","Indianapolis-Carmel-Muncie, IN"
"Edgewater","Edgewater","","IN","Indiana","18127","Porter","18127","Porter","41.5162","-87.0467","","","664.4","point","FALSE","FALSE","FALSE","FALSE","America/Chicago","4","46383","1840054630","","","","","","","","","","","","","","","","","","","","","","","","","","","","","","","","","","","","","","","","","","","","","","","","","","","","","","","","","","","","","","","","16980","Chicago-Naperville-Elgin, IL-IN-WI","TRUE","176","Chicago-Naperville, IL-IN-WI"
"Edgewood Village","Edgewood Village","","IN","Indiana","18095","Madison","18095","Madison","40.1014","-85.7530","","","119.8","point","FALSE","FALSE","FALSE","FALSE","America/Indiana/Indianapolis","4","46011","1840054632","","","","","","","","","","","","","","","","","","","","","","","","","","","","","","","","","","","","","","","","","","","","","","","","","","","","","","","","","","","","","","","","26900","Indianapolis-Carmel-Anderson, IN","TRUE","294","Indianapolis-Carmel-Muncie, IN"
"Malmo","Malmo","","MN","Minnesota","27001","Aitkin","27001","Aitkin","46.3338","-93.5194","","","25.7","point","FALSE","FALSE","FALSE","FALSE","America/Chicago","4","56431","1840031847","","","","","","","","","","","","","","","","","","","","","","","","","","","","","","","","","","","","","","","","","","","","","","","","","","","","","","","","","","","","","","","","","","FALSE","",""
"Mallory","Mallory","","MN","Minnesota","27119","Polk","27119","Polk","47.8766","-96.9117","","","2.1","point","FALSE","FALSE","FALSE","FALSE","America/Chicago","5","56721","1840071470","","","","","","","","","","","","","","","","","","","","","","","","","","","","","","","","","","","","","","","","","","","","","","","","","","","","","","","","","","","","","","","","24220","Grand Forks, ND-MN","TRUE","",""
"Woodmansie","Woodmansie","","NJ","New Jersey","34005","Burlington","34005","Burlington","39.8679","-74.4665","","","0.0","point","FALSE","FALSE","FALSE","FALSE","America/New_York","5","08015","1840081553","","","","","","","","","","","","","","","","","","","","","","","","","","","","","","","","","","","","","","","","","","","","","","","","","","","","","","","","","","","","","","","","35620","New York-Newark-Jersey City, NY-NJ-PA","TRUE","408","New York-Newark, NY-NJ-CT-PA"
"Sacate","Sacate","","CA","California","06083","Santa Barbara","06083","Santa Barbara","34.4722","-120.2935","","","0.4","point","FALSE","FALSE","FALSE","FALSE","America/Los_Angeles","5","93117","1840131281","","","","","","","","","","","","","","","","","","","","","","","","","","","","","","","","","","","","","","","","","","","","","","","","","","","","","","","","","","","","","","","","42200","Santa Maria-Santa Barbara, CA","TRUE","",""
"Lintz Addition","Lintz Addition","","WV","West Virginia","54045","Logan","54045","Logan","37.8484","-82.0218","","","187.2","point","FALSE","FALSE","FALSE","FALSE","America/New_York","4","25649","1840121043","","","","","","","","","","","","","","","","","","","","","","","","","","","","","","","","","","","","","","","","","","","","","","","","","","","","","","","","","","","","","","","","34350","Mount Gay-Shamrock, WV","FALSE","170","Charleston-Huntington-Ashland, WV-OH-KY"
"Aikinsville","Aikinsville","","MO","Missouri","29141","Morgan","29141","Morgan","38.5581","-92.8363","","","3.6","point","FALSE","FALSE","FALSE","FALSE","America/Chicago","5","65034","1840076454","","","","","","","","","","","","","","","","","","","","","","","","","","","","","","","","","","","","","","","","","","","","","","","","","","","","","","","","","","","","","","","","27620","Jefferson City, MO","TRUE","",""
"North Goshen","North Goshen","","CT","Connecticut","09160","Northwest Hills","09160","Northwest Hills","41.8987","-73.2123","","","1.0","point","FALSE","FALSE","FALSE","FALSE","America/New_York","5","06058","1840044902","","","","","","","","","","","","","","","","","","","","","","","","","","","","","","","","","","","","","","","","","","","","","","","","","","","","","","","","","","","","","","","","45860","Torrington, CT","FALSE","408","New York-Newark, NY-NJ-CT-PA"
"Arbaugh","Arbaugh","","AR","Arkansas","05101","Newton","05101","Newton","35.7817","-93.5016","","","0.6","point","FALSE","FALSE","FALSE","FALSE","America/Chicago","5","72852","1840040040","","","","","","","","","","","","","","","","","","","","","","","","","","","","","","","","","","","","","","","","","","","","","","","","","","","","","","","","","","","","","","","","25460","Harrison, AR","FALSE","",""
"Twinton","Twinton","","TN","Tennessee","47133","Overton","47133","Overton","36.2842","-85.1277","","","29.7","point","FALSE","FALSE","FALSE","FALSE","America/Chicago","4","38554","1840109127","","","","","","","","","","","","","","","","","","","","","","","","","","","","","","","","","","","","","","","","","","","","","","","","","","","","","","","","","","","","","","","","18260","Cookeville, TN","FALSE","",""
"Hodges","Hodges","","KS","Kansas","20047","Edwards","20047","Edwards","37.8167","-99.3837","","","0.1","point","FALSE","FALSE","FALSE","FALSE","America/Chicago","5","67547","1840059874","","","","","","","","","","","","","","","","","","","","","","","","","","","","","","","","","","","","","","","","","","","","","","","","","","","","","","","","","","","","","","","","","","FALSE","",""
"Hathaway Mead","Hathaway Mead","","OR","Oregon","41057","Tillamook","41057","Tillamook","45.4568","-123.8187","","","1185.9","point","FALSE","FALSE","FALSE","FALSE","America/Los_Angeles","4","97141","1840097974","","","","","","","","","","","","","","","","","","","","","","","","","","","","","","","","","","","","","","","","","","","","","","","","","","","","","","","","","","","","","","","","","","FALSE","",""
"Boggsville","Boggsville","","CO","Colorado","08011","Bent","08011","Bent","38.0417","-103.2127","","","4.8","point","FALSE","FALSE","FALSE","FALSE","America/Denver","5","81054","1840044305","","","","","","","","","","","","","","","","","","","","","","","","","","","","","","","","","","","","","","","","","","","","","","","","","","","","","","","","","","","","","","","","","","FALSE","",""
"Wareland","Wareland","","CO","Colorado","08073","Lincoln","08073","Lincoln","39.0925","-103.2158","","","0.0","point","FALSE","FALSE","FALSE","FALSE","America/Denver","5","80821","1840044303","","","","","","","","","","","","","","","","","","","","","","","","","","","","","","","","","","","","","","","","","","","","","","","","","","","","","","","","","","","","","","","","","","FALSE","",""
"Hillman Park","Hillman Park","","AL","Alabama","01073","Jefferson","01073","Jefferson","33.4448","-86.9005","","","997.9","point","FALSE","FALSE","FALSE","FALSE","America/Chicago","4","35221","1840041249","","","","","","","","","","","","","","","","","","","","","","","","","","","","","","","","","","","","","","","","","","","","","","","","","","","","","","","","","","","","","","","","13820","Birmingham-Hoover, AL","TRUE","142","Birmingham-Hoover-Talladega, AL"
"Hillman Gardens","Hillman Gardens","","AL","Alabama","01073","Jefferson","01073","Jefferson","33.4479","-86.9030","","","997.9","point","FALSE","FALSE","FALSE","FALSE","America/Chicago","4","35221","1840041248","","","","","","","","","","","","","","","","","","","","","","","","","","","","","","","","","","","","","","","","","","","","","","","","","","","","","","","","","","","","","","","","13820","Birmingham-Hoover, AL","TRUE","142","Birmingham-Hoover-Talladega, AL"
"Cedar Beach","Cedar Beach","","VT","Vermont","50007","Chittenden","50007","Chittenden","44.2917","-73.3029","","","31.1","point","FALSE","FALSE","FALSE","FALSE","America/New_York","4","05445","1840114732","","","","","","","","","","","","","","","","","","","","","","","","","","","","","","","","","","","","","","","","","","","","","","","","","","","","","","","","","","","","","","","","15540","Burlington-South Burlington, VT","TRUE","162","Burlington-South Burlington-Barre, VT"
"Timesville","Timesville","","TN","Tennessee","47065","Hamilton","47065","Hamilton","35.1551","-85.3311","","","473.0","point","FALSE","FALSE","FALSE","FALSE","America/Chicago","4","37377","1840109108","","","","","","","","","","","","","","","","","","","","","","","","","","","","","","","","","","","","","","","","","","","","","","","","","","","","","","","","","","","","","","","","16860","Chattanooga, TN-GA","TRUE","174","Chattanooga-Cleveland-Dalton, TN-GA"
"Center Valley","Center Valley","","PA","Pennsylvania","42077","Lehigh","42077","Lehigh","40.5293","-75.3932","","","346.8","point","FALSE","FALSE","FALSE","FALSE","America/New_York","4","18034","1840098749","","","","","","","","","","","","","","","","","","","","","","","","","","","","","","","","","","","","","","","","","","","","","","","","","","","","","","","","","","","","","","","","10900","Allentown-Bethlehem-Easton, PA-NJ","TRUE","",""
"Alexander Springs","Alexander Springs","","FL","Florida","12069","Lake","12069","Lake","29.0803","-81.5781","","","0.0","point","FALSE","FALSE","FALSE","FALSE","America/New_York","5","32702","1840047822","","","","","","","","","","","","","","","","","","","","","","","","","","","","","","","","","","","","","","","","","","","","","","","","","","","","","","","","","","","","","","","","36740","Orlando-Kissimmee-Sanford, FL","TRUE","422","Orlando-Lakeland-Deltona, FL"
"Lexington","Lexington","","PA","Pennsylvania","42071","Lancaster","42071","Lancaster","40.1884","-76.2997","","","143.4","point","FALSE","FALSE","FALSE","FALSE","America/New_York","4","17543","1840100107","","","","","","","","","","","","","","","","","","","","","","","","","","","","","","","","","","","","","","","","","","","","","","","","","","","","","","","","","","","","","","","","29540","Lancaster, PA","TRUE","",""
"Archertown","Archertown","","NJ","New Jersey","34029","Ocean","34029","Ocean","40.0654","-74.4999","","","69.6","point","FALSE","FALSE","FALSE","FALSE","America/New_York","4","08533","1840080465","","","","","","","","","","","","","","","","","","","","","","","","","","","","","","","","","","","","","","","","","","","","","","","","","","","","","","","","","","","","","","","","35620","New York-Newark-Jersey City, NY-NJ-PA","TRUE","408","New York-Newark, NY-NJ-CT-PA"
"Newburg","Newburg","","MI","Michigan","26091","Lenawee","26091","Lenawee","42.0423","-83.9683","","","47.5","point","FALSE","FALSE","FALSE","FALSE","America/Detroit","4","49286","1840071061","","","","","","","","","","","","","","","","","","","","","","","","","","","","","","","","","","","","","","","","","","","","","","","","","","","","","","","","","","","","","","","","10300","Adrian, MI","FALSE","220","Detroit-Warren-Ann Arbor, MI"
"Apshawa","Apshawa","","NJ","New Jersey","34031","Passaic","34031","Passaic","41.0176","-74.3629","","","105.3","point","FALSE","FALSE","FALSE","FALSE","America/New_York","4","07480","1840033216","","","","","","","","","","","","","","","","","","","","","","","","","","","","","","","","","","","","","","","","","","","","","","","","","","","","","","","","","","","","","","","","35620","New York-Newark-Jersey City, NY-NJ-PA","TRUE","408","New York-Newark, NY-NJ-CT-PA"
"Applegarth","Applegarth","","NJ","New Jersey","34023","Middlesex","34023","Middlesex","40.2784","-74.4727","","","141.0","point","FALSE","FALSE","FALSE","FALSE","America/New_York","4","08831","1840080463","","","","","","","","","","","","","","","","","","","","","","","","","","","","","","","","","","","","","","","","","","","","","","","","","","","","","","","","","","","","","","","","35620","New York-Newark-Jersey City, NY-NJ-PA","TRUE","408","New York-Newark, NY-NJ-CT-PA"
"Rainbow Mountain Heights","Rainbow Mountain Heights","","AL","Alabama","01089","Madison","01089","Madison","34.7479","-86.7144","","","695.3","point","FALSE","FALSE","FALSE","FALSE","America/Chicago","4","35758","1840041598","","","","","","","","","","","","","","","","","","","","","","","","","","","","","","","","","","","","","","","","","","","","","","","","","","","","","","","","","","","","","","","","26620","Huntsville, AL","TRUE","290","Huntsville-Decatur, AL"
"Rainbow","Rainbow","","AL","Alabama","01089","Madison","01089","Madison","34.7526","-86.7364","","","470.6","point","FALSE","FALSE","FALSE","FALSE","America/Chicago","4","35758","1840041597","","","","","","","","","","","","","","","","","","","","","","","","","","","","","","","","","","","","","","","","","","","","","","","","","","","","","","","","","","","","","","","","26620","Huntsville, AL","TRUE","290","Huntsville-Decatur, AL"
"Raimund","Raimund","","AL","Alabama","01073","Jefferson","01073","Jefferson","33.3679","-86.9614","","","468.8","point","FALSE","FALSE","FALSE","FALSE","America/Chicago","4","35020","1840041596","","","","","","","","","","","","","","","","","","","","","","","","","","","","","","","","","","","","","","","","","","","","","","","","","","","","","","","","","","","","","","","","13820","Birmingham-Hoover, AL","TRUE","142","Birmingham-Hoover-Talladega, AL"
"Buckshutem","Buckshutem","","NJ","New Jersey","34011","Cumberland","34011","Cumberland","39.3190","-75.0127","","","114.0","point","FALSE","FALSE","FALSE","FALSE","America/New_York","4","08332","1840080554","","","","","","","","","","","","","","","","","","","","","","","","","","","","","","","","","","","","","","","","","","","","","","","","","","","","","","","","","","","","","","","","47220","Vineland-Bridgeton, NJ","TRUE","428","Philadelphia-Reading-Camden, PA-NJ-DE-MD"
"Fochee","Fochee","","TN","Tennessee","47105","Loudon","47105","Loudon","35.7006","-84.4860","","","14.6","point","FALSE","FALSE","FALSE","FALSE","America/New_York","4","37774","1840110820","","","","","","","","","","","","","","","","","","","","","","","","","","","","","","","","","","","","","","","","","","","","","","","","","","","","","","","","","","","","","","","","28940","Knoxville, TN","TRUE","315","Knoxville-Morristown-Sevierville, TN"
"Beacon","Beacon","","TN","Tennessee","47039","Decatur","47039","Decatur","35.6284","-88.1831","","","61.1","point","FALSE","FALSE","FALSE","FALSE","America/Chicago","4","38363","1840110674","","","","","","","","","","","","","","","","","","","","","","","","","","","","","","","","","","","","","","","","","","","","","","","","","","","","","","","","","","","","","","","","","","FALSE","",""
"Lindsey","Lindsey","","AR","Arkansas","05075","Lawrence","05075","Lawrence","35.9909","-91.0165","","","1.2","point","FALSE","FALSE","FALSE","FALSE","America/Chicago","5","72433","1840039509","","","","","","","","","","","","","","","","","","","","","","","","","","","","","","","","","","","","","","","","","","","","","","","","","","","","","","","","","","","","","","","","27860","Jonesboro, AR","TRUE","308","Jonesboro-Paragould, AR"
"Pilette","Pilette","","LA","Louisiana","22055","Lafayette","22055","Lafayette","30.1685","-91.9993","","","260.7","point","FALSE","FALSE","FALSE","FALSE","America/Chicago","4","70508","1840063943","","","","","","","","","","","","","","","","","","","","","","","","","","","","","","","","","","","","","","","","","","","","","","","","","","","","","","","","","","","","","","","","29180","Lafayette, LA","TRUE","318","Lafayette-Opelousas-Morgan City, LA"
"Satsuma","Satsuma","","LA","Louisiana","22063","Livingston","22063","Livingston","30.5027","-90.8004","","","106.2","point","FALSE","FALSE","FALSE","FALSE","America/Chicago","4","70754","1840064428","","","","","","","","","","","","","","","","","","","","","","","","","","","","","","","","","","","","","","","","","","","","","","","","","","","","","","","","","","","","","","","","12940","Baton Rouge, LA","TRUE","",""
"Aimwell","Aimwell","","AL","Alabama","01091","Marengo","01091","Marengo","32.1215","-87.9061","","","7.3","point","FALSE","FALSE","FALSE","FALSE","America/Chicago","5","36782","1840040761","","","","","","","","","","","","","","","","","","","","","","","","","","","","","","","","","","","","","","","","","","","","","","","","","","","","","","","","","","","","","","","","","","FALSE","",""
"Shields","Shields","","ND","North Dakota","38037","Grant","38037","Grant","46.2336","-101.1260","","","0.3","point","FALSE","FALSE","FALSE","FALSE","America/Chicago","5","58569","1840027238","","","","","","","","","","","","","","","","","","","","","","","","","","","","","","","","","","","","","","","","","","","","","","","","","","","","","","","","","","","","","","","","","","FALSE","",""
"Cameo","Cameo","","NM","New Mexico","35041","Roosevelt","35041","Roosevelt","34.2876","-103.2233","","","0.2","point","FALSE","FALSE","FALSE","FALSE","America/Denver","5","88101","1840027279","","","","","","","","","","","","","","","","","","","","","","","","","","","","","","","","","","","","","","","","","","","","","","","","","","","","","","","","","","","","","","","","38780","Portales, NM","FALSE","188","Clovis-Portales, NM"
"WaiƒÅkea","Waiakea","","HI","Hawaii","15001","Hawaii","15001","Hawaii","19.7131","-155.0686","","","1891.5","point","FALSE","FALSE","FALSE","FALSE","Pacific/Honolulu","4","96720","1840050215","","","","","","","","","","","","","","","","","","","","","","","","","","","","","","","","","","","","","","","","","","","","","","","","","","","","","","","","","","","","","","","","25900","Hilo, HI","FALSE","",""
"Perryville","Perryville","","LA","Louisiana","22073","Ouachita","22073","Ouachita","32.7079","-92.0054","","","5.8","point","FALSE","FALSE","FALSE","FALSE","America/Chicago","5","71220","1840030967","","","","","","","","","","","","","","","","","","","","","","","","","","","","","","","","","","","","","","","","","","","","","","","","","","","","","","","","","","","","","","","","33740","Monroe, LA","TRUE","384","Monroe-Ruston, LA"
"Shoveltown","Shoveltown","","MO","Missouri","29189","St. Louis","29189","St. Louis","38.8156","-90.2807","","","877.8","point","FALSE","FALSE","FALSE","FALSE","America/Chicago","4","63034","1840032247","","","","","","","","","","","","","","","","","","","","","","","","","","","","","","","","","","","","","","","","","","","","","","","","","","","","","","","","","","","","","","","","41180","St. Louis, MO-IL","TRUE","476","St. Louis-St. Charles-Farmington, MO-IL"
"Bethel","Bethel","","NM","New Mexico","35041","Roosevelt","35041","Roosevelt","34.2287","-103.4747","","","6.3","point","FALSE","FALSE","FALSE","FALSE","America/Denver","5","88130","1840082187","","","","","","","","","","","","","","","","","","","","","","","","","","","","","","","","","","","","","","","","","","","","","","","","","","","","","","","","","","","","","","","","38780","Portales, NM","FALSE","188","Clovis-Portales, NM"
"Chama","Chama","","ND","North Dakota","38033","Golden Valley","38033","Golden Valley","46.9078","-103.9102","","","0.1","point","FALSE","FALSE","FALSE","FALSE","America/Denver","5","58621","1840091070","","","","","","","","","","","","","","","","","","","","","","","","","","","","","","","","","","","","","","","","","","","","","","","","","","","","","","","","","","","","","","","","","","FALSE","",""
"Chili","Chili","","OH","Ohio","39031","Coshocton","39031","Coshocton","40.3740","-81.7540","","","35.4","point","FALSE","FALSE","FALSE","FALSE","America/New_York","4","43824","1840092522","","","","","","","","","","","","","","","","","","","","","","","","","","","","","","","","","","","","","","","","","","","","","","","","","","","","","","","","","","","","","","","","18740","Coshocton, OH","FALSE","",""
"Chrisman","Chrisman","","OH","Ohio","39097","Madison","39097","Madison","39.8331","-83.3727","","","10.9","point","FALSE","FALSE","FALSE","FALSE","America/New_York","4","43140","1840092523","","","","","","","","","","","","","","","","","","","","","","","","","","","","","","","","","","","","","","","","","","","","","","","","","","","","","","","","","","","","","","","","18140","Columbus, OH","TRUE","198","Columbus-Marion-Zanesville, OH"
"City View Heights","City View Heights","","OH","Ohio","39017","Butler","39017","Butler","39.4228","-84.5513","","","533.9","point","FALSE","FALSE","FALSE","FALSE","America/New_York","4","45013","1840034104","","","","","","","","","","","","","","","","","","","","","","","","","","","","","","","","","","","","","","","","","","","","","","","","","","","","","","","","","","","","","","","","17140","Cincinnati, OH-KY-IN","TRUE","178","Cincinnati-Wilmington-Maysville, OH-KY-IN"
"Clough Heights","Clough Heights","","OH","Ohio","39025","Clermont","39025","Clermont","39.0862","-84.3002","","","1122.8","point","FALSE","FALSE","FALSE","FALSE","America/New_York","4","45244","1840092525","","","","","","","","","","","","","","","","","","","","","","","","","","","","","","","","","","","","","","","","","","","","","","","","","","","","","","","","","","","","","","","","17140","Cincinnati, OH-KY-IN","TRUE","178","Cincinnati-Wilmington-Maysville, OH-KY-IN"
"Barona","Barona","","CA","California","06073","San Diego","06073","San Diego","32.9359","-116.8681","","","53.6","point","FALSE","FALSE","FALSE","FALSE","America/Los_Angeles","4","92040","1840129844","","","","","","","","","","","","","","","","","","","","","","","","","","","","","","","","","","","","","","","","","","","","","","","","","","","","","","","","","","","","","","","","41740","San Diego-Chula Vista-Carlsbad, CA","TRUE","",""
"Brayton","Brayton","","TN","Tennessee","47007","Bledsoe","47007","Bledsoe","35.4823","-85.1833","","","16.5","point","FALSE","FALSE","FALSE","FALSE","America/Chicago","4","37338","1840111287","","","","","","","","","","","","","","","","","","","","","","","","","","","","","","","","","","","","","","","","","","","","","","","","","","","","","","","","","","","","","","","","16860","Chattanooga, TN-GA","TRUE","174","Chattanooga-Cleveland-Dalton, TN-GA"
"Bradshaw","Bradshaw","","TN","Tennessee","47055","Giles","47055","Giles","35.1937","-86.8708","","","7.0","point","FALSE","FALSE","FALSE","FALSE","America/Chicago","5","38478","1840111283","","","","","","","","","","","","","","","","","","","","","","","","","","","","","","","","","","","","","","","","","","","","","","","","","","","","","","","","","","","","","","","","","","FALSE","",""
"Bradbury","Bradbury","","TN","Tennessee","47145","Roane","47145","Roane","35.8704","-84.3899","","","26.4","point","FALSE","FALSE","FALSE","FALSE","America/New_York","4","37771","1840111282","","","","","","","","","","","","","","","","","","","","","","","","","","","","","","","","","","","","","","","","","","","","","","","","","","","","","","","","","","","","","","","","28940","Knoxville, TN","TRUE","315","Knoxville-Morristown-Sevierville, TN"
"Boyds Creek","Boyds Creek","","TN","Tennessee","47155","Sevier","47155","Sevier","35.9234","-83.6591","","","209.5","point","FALSE","FALSE","FALSE","FALSE","America/New_York","4","37876","1840111281","","","","","","","","","","","","","","","","","","","","","","","","","","","","","","","","","","","","","","","","","","","","","","","","","","","","","","","","","","","","","","","","42940","Sevierville, TN","FALSE","315","Knoxville-Morristown-Sevierville, TN"
"Black Meadow Landing","Black Meadow Landing","","CA","California","06071","San Bernardino","06071","San Bernardino","34.3520","-114.1977","","","0.0","point","FALSE","FALSE","FALSE","FALSE","America/Phoenix","5","92267","1840129847","","","","","","","","","","","","","","","","","","","","","","","","","","","","","","","","","","","","","","","","","","","","","","","","","","","","","","","","","","","","","","","","29420","Lake Havasu City-Kingman, AZ","TRUE","",""
"West Lake Wales","West Lake Wales","","FL","Florida","12105","Polk","12105","Polk","27.8903","-81.6465","","","90.8","point","FALSE","FALSE","FALSE","FALSE","America/New_York","4","33859","1840028795","","","","","","","","","","","","","","","","","","","","","","","","","","","","","","","","","","","","","","","","","","","","","","","","","","","","","","","","","","","","","","","","29460","Lakeland-Winter Haven, FL","TRUE","422","Orlando-Lakeland-Deltona, FL"
"Thorne","Thorne","","NV","Nevada","32021","Mineral","32021","Mineral","38.6019","-118.5915","","","0.2","point","FALSE","FALSE","FALSE","FALSE","America/Los_Angeles","5","89415","1840027895","","","","","","","","","","","","","","","","","","","","","","","","","","","","","","","","","","","","","","","","","","","","","","","","","","","","","","","","","","","","","","","","","","FALSE","",""
"Pumphrey","Pumphrey","","MD","Maryland","24003","Anne Arundel","24003","Anne Arundel","39.2180","-76.6422","","","1208.2","point","FALSE","FALSE","FALSE","FALSE","America/New_York","3","21225","1840133270","","","","","","","","","","","","","","","","","","","","","","","","","","","","","","","","","","","","","","","","","","","","","","","","","","","","","","","","","","","","","","","","12580","Baltimore-Columbia-Towson, MD","TRUE","548","Washington-Baltimore-Arlington, DC-MD-VA-WV-PA"
"Walnut Log","Walnut Log","","TN","Tennessee","47131","Obion","47131","Obion","36.4678","-89.3156","","","16.2","point","FALSE","FALSE","FALSE","FALSE","America/Chicago","4","38261","1840110634","","","","","","","","","","","","","","","","","","","","","","","","","","","","","","","","","","","","","","","","","","","","","","","","","","","","","","","","","","","","","","","","46460","Union City, TN","FALSE","362","Martin-Union City, TN"
"West Unity","West Unity","","NH","New Hampshire","33019","Sullivan","33019","Sullivan","43.2881","-72.3165","","","16.1","point","FALSE","FALSE","FALSE","FALSE","America/New_York","4","03743","1840080107","","","","","","","","","","","","","","","","","","","","","","","","","","","","","","","","","","","","","","","","","","","","","","","","","","","","","","","","","","","","","","","","30100","Lebanon, NH-VT","FALSE","",""
"Tyler","Tyler","","NH","New Hampshire","33013","Merrimack","33013","Merrimack","43.2345","-71.6895","","","28.2","point","FALSE","FALSE","FALSE","FALSE","America/New_York","4","03229","1840080104","","","","","","","","","","","","","","","","","","","","","","","","","","","","","","","","","","","","","","","","","","","","","","","","","","","","","","","","","","","","","","","","18180","Concord, NH","FALSE","148","Boston-Worcester-Providence, MA-RI-NH-CT"
"Floyd","Floyd","","CA","California","06019","Fresno","06019","Fresno","36.7349","-119.9929","","","18.6","point","FALSE","FALSE","FALSE","FALSE","America/Los_Angeles","4","93706","1840131481","","","","","","","","","","","","","","","","","","","","","","","","","","","","","","","","","","","","","","","","","","","","","","","","","","","","","","","","","","","","","","","","23420","Fresno, CA","TRUE","260","Fresno-Madera-Hanford, CA"
"Balderson Station","Balderson Station","","CA","California","06017","El Dorado","06017","El Dorado","38.9346","-120.7541","","","41.6","point","FALSE","FALSE","FALSE","FALSE","America/Los_Angeles","4","95634","1840129992","","","","","","","","","","","","","","","","","","","","","","","","","","","","","","","","","","","","","","","","","","","","","","","","","","","","","","","","","","","","","","","","40900","Sacramento-Roseville-Folsom, CA","TRUE","472","Sacramento-Roseville, CA"
"Heistersburg","Heistersburg","","PA","Pennsylvania","42051","Fayette","42051","Fayette","39.9629","-79.9314","","","10.1","point","FALSE","FALSE","FALSE","FALSE","America/New_York","4","15433","1840099676","","","","","","","","","","","","","","","","","","","","","","","","","","","","","","","","","","","","","","","","","","","","","","","","","","","","","","","","","","","","","","","","38300","Pittsburgh, PA","TRUE","430","Pittsburgh-New Castle-Weirton, PA-OH-WV"
"Prairie View","Prairie View","","IL","Illinois","17097","Lake","17097","Lake","42.1992","-87.9556","","","1285.4","point","FALSE","FALSE","FALSE","FALSE","America/Chicago","4","60089","1840029808","","","","","","","","","","","","","","","","","","","","","","","","","","","","","","","","","","","","","","","","","","","","","","","","","","","","","","","","","","","","","","","","16980","Chicago-Naperville-Elgin, IL-IN-WI","TRUE","176","Chicago-Naperville, IL-IN-WI"
"Kiahsville","Kiahsville","","WV","West Virginia","54099","Wayne","54099","Wayne","38.0915","-82.3274","","","0.0","point","FALSE","FALSE","FALSE","FALSE","America/New_York","5","25534","1840033813","","","","","","","","","","","","","","","","","","","","","","","","","","","","","","","","","","","","","","","","","","","","","","","","","","","","","","","","","","","","","","","","26580","Huntington-Ashland, WV-KY-OH","TRUE","170","Charleston-Huntington-Ashland, WV-OH-KY"
"King","King","","WV","West Virginia","54103","Wetzel","54103","Wetzel","39.5012","-80.6815","","","10.5","point","FALSE","FALSE","FALSE","FALSE","America/New_York","4","26167","1840122655","","","","","","","","","","","","","","","","","","","","","","","","","","","","","","","","","","","","","","","","","","","","","","","","","","","","","","","","","","","","","","","","","","FALSE","",""
"Helixville","Helixville","","PA","Pennsylvania","42009","Bedford","42009","Bedford","40.0742","-78.7045","","","13.3","point","FALSE","FALSE","FALSE","FALSE","America/New_York","4","15559","1840099678","","","","","","","","","","","","","","","","","","","","","","","","","","","","","","","","","","","","","","","","","","","","","","","","","","","","","","","","","","","","","","","","43740","Somerset, PA","FALSE","306","Johnstown-Somerset, PA"
"Helen Mills","Helen Mills","","PA","Pennsylvania","42047","Elk","42047","Elk","41.2770","-78.7045","","","26.4","point","FALSE","FALSE","FALSE","FALSE","America/New_York","4","15823","1840099677","","","","","","","","","","","","","","","","","","","","","","","","","","","","","","","","","","","","","","","","","","","","","","","","","","","","","","","","","","","","","","","","41260","St. Marys, PA","FALSE","",""
"Cannon","Cannon","","TX","Texas","48181","Grayson","48181","Grayson","33.4387","-96.4839","","","47.9","point","FALSE","FALSE","FALSE","FALSE","America/Chicago","4","75495","1840112641","","","","","","","","","","","","","","","","","","","","","","","","","","","","","","","","","","","","","","","","","","","","","","","","","","","","","","","","","","","","","","","","43300","Sherman-Denison, TX","TRUE","206","Dallas-Fort Worth, TX-OK"
"Rosedale","Rosedale","","NJ","New Jersey","34021","Mercer","34021","Mercer","40.3382","-74.7218","","","59.4","point","FALSE","FALSE","FALSE","FALSE","America/New_York","4","08540","1840081301","","","","","","","","","","","","","","","","","","","","","","","","","","","","","","","","","","","","","","","","","","","","","","","","","","","","","","","","","","","","","","","","45940","Trenton-Princeton, NJ","TRUE","408","New York-Newark, NY-NJ-CT-PA"
"Hortonia","Hortonia","","VT","Vermont","50021","Rutland","50021","Rutland","43.7453","-73.2232","","","72.0","point","FALSE","FALSE","FALSE","FALSE","America/New_York","4","05743","1840114851","","","","","","","","","","","","","","","","","","","","","","","","","","","","","","","","","","","","","","","","","","","","","","","","","","","","","","","","","","","","","","","","40860","Rutland, VT","FALSE","",""
"Ogdensburg","Ogdensburg","","PA","Pennsylvania","42117","Tioga","42117","Tioga","41.6154","-76.9705","","","19.4","point","FALSE","FALSE","FALSE","FALSE","America/New_York","4","17765","1840100650","","","","","","","","","","","","","","","","","","","","","","","","","","","","","","","","","","","","","","","","","","","","","","","","","","","","","","","","","","","","","","","","","","FALSE","",""
"Upper Graniteville","Upper Graniteville","","VT","Vermont","50023","Washington","50023","Washington","44.1417","-72.4765","","","98.3","point","FALSE","FALSE","FALSE","FALSE","America/New_York","4","05654","1840115054","","","","","","","","","","","","","","","","","","","","","","","","","","","","","","","","","","","","","","","","","","","","","","","","","","","","","","","","","","","","","","","","30100","Lebanon, NH-VT","FALSE","",""
"Ogletown","Ogletown","","PA","Pennsylvania","42111","Somerset","42111","Somerset","40.2026","-78.7031","","","15.5","point","FALSE","FALSE","FALSE","FALSE","America/New_York","4","15963","1840100651","","","","","","","","","","","","","","","","","","","","","","","","","","","","","","","","","","","","","","","","","","","","","","","","","","","","","","","","","","","","","","","","43740","Somerset, PA","FALSE","306","Johnstown-Somerset, PA"
"Pensacola Beach","Pensacola Beach","","FL","Florida","12033","Escambia","12033","Escambia","30.3335","-87.1375","","","98.2","point","FALSE","FALSE","FALSE","FALSE","America/Chicago","4","32561","1840046929","","","","","","","","","","","","","","","","","","","","","","","","","","","","","","","","","","","","","","","","","","","","","","","","","","","","","","","","","","","","","","","","37860","Pensacola-Ferry Pass-Brent, FL","TRUE","426","Pensacola-Ferry Pass, FL-AL"
"Peniel","Peniel","","FL","Florida","12107","Putnam","12107","Putnam","29.6200","-81.6795","","","295.6","point","FALSE","FALSE","FALSE","FALSE","America/New_York","4","32177","1840046928","","","","","","","","","","","","","","","","","","","","","","","","","","","","","","","","","","","","","","","","","","","","","","","","","","","","","","","","","","","","","","","","37260","Palatka, FL","FALSE","300","Jacksonville-St. Marys-Palatka, FL-GA"
"Eagle Valley","Eagle Valley","","NY","New York","36071","Orange","36071","Orange","41.1548","-74.2268","","","262.6","point","FALSE","FALSE","FALSE","FALSE","America/New_York","4","10987","1840033872","","","","","","","","","","","","","","","","","","","","","","","","","","","","","","","","","","","","","","","","","","","","","","","","","","","","","","","","","","","","","","","","39100","Poughkeepsie-Newburgh-Middletown, NY","TRUE","408","New York-Newark, NY-NJ-CT-PA"
"Mount Pleasant","Mount Pleasant","","VT","Vermont","50021","Rutland","50021","Rutland","43.8084","-73.0890","","","107.4","point","FALSE","FALSE","FALSE","FALSE","America/New_York","4","05733","1840115229","","","","","","","","","","","","","","","","","","","","","","","","","","","","","","","","","","","","","","","","","","","","","","","","","","","","","","","","","","","","","","","","40860","Rutland, VT","FALSE","",""
"Vallecito","Vallecito","","NM","New Mexico","35055","Taos","35055","Taos","36.1575","-105.7845","","","9.7","point","FALSE","FALSE","FALSE","FALSE","America/Denver","5","87521","1840082700","","","","","","","","","","","","","","","","","","","","","","","","","","","","","","","","","","","","","","","","","","","","","","","","","","","","","","","","","","","","","","","","45340","Taos, NM","FALSE","",""
"Branchview","Branchview","","DE","Delaware","10005","Sussex","10005","Sussex","38.6398","-75.6697","","","227.4","point","FALSE","FALSE","FALSE","FALSE","America/New_York","4","19973","1840045605","","","","","","","","","","","","","","","","","","","","","","","","","","","","","","","","","","","","","","","","","","","","","","","","","","","","","","","","","","","","","","","","41540","Salisbury, MD-DE","TRUE","480","Salisbury-Cambridge, MD-DE"
"Fernwood","Fernwood","","DE","Delaware","10005","Sussex","10005","Sussex","38.6534","-75.5719","","","284.7","point","FALSE","FALSE","FALSE","FALSE","America/New_York","4","19973","1840045604","","","","","","","","","","","","","","","","","","","","","","","","","","","","","","","","","","","","","","","","","","","","","","","","","","","","","","","","","","","","","","","","41540","Salisbury, MD-DE","TRUE","480","Salisbury-Cambridge, MD-DE"
"White River Estates","White River Estates","","DE","Delaware","10005","Sussex","10005","Sussex","38.5640","-75.6552","","","91.2","point","FALSE","FALSE","FALSE","FALSE","America/New_York","4","19956","1840045606","","","","","","","","","","","","","","","","","","","","","","","","","","","","","","","","","","","","","","","","","","","","","","","","","","","","","","","","","","","","","","","","41540","Salisbury, MD-DE","TRUE","480","Salisbury-Cambridge, MD-DE"
"Cedarbrook Acres","Cedarbrook Acres","","DE","Delaware","10001","Kent","10001","Kent","39.2793","-75.6094","","","699.1","point","FALSE","FALSE","FALSE","FALSE","America/New_York","4","19977","1840045608","","","","","","","","","","","","","","","","","","","","","","","","","","","","","","","","","","","","","","","","","","","","","","","","","","","","","","","","","","","","","","","","20100","Dover, DE","TRUE","428","Philadelphia-Reading-Camden, PA-NJ-DE-MD"
"Quakertown","Quakertown","","DE","Delaware","10005","Sussex","10005","Sussex","38.7554","-75.1594","","","246.8","point","FALSE","FALSE","FALSE","FALSE","America/New_York","4","19958","1840045179","","","","","","","","","","","","","","","","","","","","","","","","","","","","","","","","","","","","","","","","","","","","","","","","","","","","","","","","","","","","","","","","41540","Salisbury, MD-DE","TRUE","480","Salisbury-Cambridge, MD-DE"
"Marieville","Marieville","","RI","Rhode Island","44007","Providence","44007","Providence","41.8684","-71.4339","","","2070.3","point","FALSE","FALSE","FALSE","FALSE","America/New_York","4","02904","1840106127","","","","","","","","","","","","","","","","","","","","","","","","","","","","","","","","","","","","","","","","","","","","","","","","","","","","","","","","","","","","","","","","39300","Providence-Warwick, RI-MA","TRUE","148","Boston-Worcester-Providence, MA-RI-NH-CT"
"Howardville","Howardville","","IA","Iowa","19067","Floyd","19067","Floyd","43.1908","-92.7124","","","9.4","point","FALSE","FALSE","FALSE","FALSE","America/Chicago","5","50435","1840057743","","","","","","","","","","","","","","","","","","","","","","","","","","","","","","","","","","","","","","","","","","","","","","","","","","","","","","","","","","","","","","","","","","FALSE","",""
"Honey Creek","Honey Creek","","IA","Iowa","19155","Pottawattamie","19155","Pottawattamie","41.4306","-95.8664","","","17.5","point","FALSE","FALSE","FALSE","FALSE","America/Chicago","4","51542","1840057742","","","","","","","","","","","","","","","","","","","","","","","","","","","","","","","","","","","","","","","","","","","","","","","","","","","","","","","","","","","","","","","","36540","Omaha-Council Bluffs, NE-IA","TRUE","420","Omaha-Council Bluffs-Fremont, NE-IA"
"Illyria","Illyria","","IA","Iowa","19065","Fayette","19065","Fayette","42.8986","-91.6352","","","3.5","point","FALSE","FALSE","FALSE","FALSE","America/Chicago","5","52169","1840057745","","","","","","","","","","","","","","","","","","","","","","","","","","","","","","","","","","","","","","","","","","","","","","","","","","","","","","","","","","","","","","","","","","FALSE","",""
"Woodville","Woodville","","RI","Rhode Island","44007","Providence","44007","Providence","41.8623","-71.4459","","","2074.5","point","FALSE","FALSE","FALSE","FALSE","America/New_York","4","02904","1840146246","","","","","","","","","","","","","","","","","","","","","","","","","","","","","","","","","","","","","","","","","","","","","","","","","","","","","","","","","","","","","","","","39300","Providence-Warwick, RI-MA","TRUE","148","Boston-Worcester-Providence, MA-RI-NH-CT"
"Hillsdale","Hillsdale","","IA","Iowa","19129","Mills","19129","Mills","41.0075","-95.6708","","","7.1","point","FALSE","FALSE","FALSE","FALSE","America/Chicago","5","51534","1840057738","","","","","","","","","","","","","","","","","","","","","","","","","","","","","","","","","","","","","","","","","","","","","","","","","","","","","","","","","","","","","","","","36540","Omaha-Council Bluffs, NE-IA","TRUE","420","Omaha-Council Bluffs-Fremont, NE-IA"
"Homer","Homer","","IA","Iowa","19079","Hamilton","19079","Hamilton","42.3739","-93.9236","","","7.4","point","FALSE","FALSE","FALSE","FALSE","America/Chicago","5","50249","1840057741","","","","","","","","","","","","","","","","","","","","","","","","","","","","","","","","","","","","","","","","","","","","","","","","","","","","","","","","","","","","","","","","","","FALSE","",""
"Holbrook","Holbrook","","IA","Iowa","19095","Iowa","19095","Iowa","41.5908","-91.9130","","","8.4","point","FALSE","FALSE","FALSE","FALSE","America/Chicago","5","52325","1840057740","","","","","","","","","","","","","","","","","","","","","","","","","","","","","","","","","","","","","","","","","","","","","","","","","","","","","","","","","","","","","","","","26980","Iowa City, IA","TRUE","168","Cedar Rapids-Iowa City, IA"
"Kearsarge","Kearsarge","","NH","New Hampshire","33003","Carroll","33003","Carroll","44.0753","-71.1176","","","28.0","point","FALSE","FALSE","FALSE","FALSE","America/New_York","4","03845","1840080168","","","","","","","","","","","","","","","","","","","","","","","","","","","","","","","","","","","","","","","","","","","","","","","","","","","","","","","","","","","","","","","","","","FALSE","",""
"Firlock","Firlock","","OR","Oregon","41067","Washington","41067","Washington","45.4704","-122.7557","","","1728.8","point","FALSE","FALSE","FALSE","FALSE","America/Los_Angeles","4","97223","1840097654","","","","","","","","","","","","","","","","","","","","","","","","","","","","","","","","","","","","","","","","","","","","","","","","","","","","","","","","","","","","","","","","38900","Portland-Vancouver-Hillsboro, OR-WA","TRUE","440","Portland-Vancouver-Salem, OR-WA"
"Finn","Finn","","OR","Oregon","41039","Lane","41039","Lane","44.0571","-123.2012","","","3.8","point","FALSE","FALSE","FALSE","FALSE","America/Los_Angeles","5","97402","1840097652","","","","","","","","","","","","","","","","","","","","","","","","","","","","","","","","","","","","","","","","","","","","","","","","","","","","","","","","","","","","","","","","21660","Eugene-Springfield, OR","TRUE","",""
"Fir","Fir","","OR","Oregon","41051","Multnomah","41051","Multnomah","45.5660","-122.5859","","","2049.9","point","FALSE","FALSE","FALSE","FALSE","America/Los_Angeles","4","97218","1840097653","","","","","","","","","","","","","","","","","","","","","","","","","","","","","","","","","","","","","","","","","","","","","","","","","","","","","","","","","","","","","","","","38900","Portland-Vancouver-Hillsboro, OR-WA","TRUE","440","Portland-Vancouver-Salem, OR-WA"
"Ferndale","Ferndale","","OR","Oregon","41059","Umatilla","41059","Umatilla","45.9812","-118.3975","","","233.9","point","FALSE","FALSE","FALSE","FALSE","America/Los_Angeles","4","97862","1840097650","","","","","","","","","","","","","","","","","","","","","","","","","","","","","","","","","","","","","","","","","","","","","","","","","","","","","","","","","","","","","","","","25840","Hermiston-Pendleton, OR","FALSE","",""
"Fernwood","Fernwood","","OR","Oregon","41005","Clackamas","41005","Clackamas","45.1246","-122.4712","","","21.7","point","FALSE","FALSE","FALSE","FALSE","America/Los_Angeles","4","97038","1840097651","","","","","","","","","","","","","","","","","","","","","","","","","","","","","","","","","","","","","","","","","","","","","","","","","","","","","","","","","","","","","","","","38900","Portland-Vancouver-Hillsboro, OR-WA","TRUE","440","Portland-Vancouver-Salem, OR-WA"
"Faraday","Faraday","","OR","Oregon","41005","Clackamas","41005","Clackamas","45.2690","-122.3156","","","136.5","point","FALSE","FALSE","FALSE","FALSE","America/Los_Angeles","4","97023","1840097648","","","","","","","","","","","","","","","","","","","","","","","","","","","","","","","","","","","","","","","","","","","","","","","","","","","","","","","","","","","","","","","","38900","Portland-Vancouver-Hillsboro, OR-WA","TRUE","440","Portland-Vancouver-Salem, OR-WA"
"Rock Elm","Rock Elm","","WI","Wisconsin","55093","Pierce","55093","Pierce","44.7366","-92.2166","","","23.2","point","FALSE","FALSE","FALSE","FALSE","America/Chicago","4","54740","1840124053","","","","","","","","","","","","","","","","","","","","","","","","","","","","","","","","","","","","","","","","","","","","","","","","","","","","","","","","","","","","","","","","33460","Minneapolis-St. Paul-Bloomington, MN-WI","TRUE","378","Minneapolis-St. Paul, MN-WI"
"Baldwin","Baldwin","","TX","Texas","48203","Harrison","48203","Harrison","32.7060","-94.2344","","","6.0","point","FALSE","FALSE","FALSE","FALSE","America/Chicago","5","75661","1840112927","","","","","","","","","","","","","","","","","","","","","","","","","","","","","","","","","","","","","","","","","","","","","","","","","","","","","","","","","","","","","","","","30980","Longview, TX","TRUE","",""
"Moshier Falls","Moshier Falls","","NY","New York","36043","Herkimer","36043","Herkimer","43.8701","-75.1394","","","0.0","point","FALSE","FALSE","FALSE","FALSE","America/New_York","5","13367","1840084635","","","","","","","","","","","","","","","","","","","","","","","","","","","","","","","","","","","","","","","","","","","","","","","","","","","","","","","","","","","","","","","","46540","Utica-Rome, NY","TRUE","",""
"Mosherville","Mosherville","","NY","New York","36091","Saratoga","36091","Saratoga","43.0617","-74.0187","","","43.2","point","FALSE","FALSE","FALSE","FALSE","America/New_York","4","12074","1840084634","","","","","","","","","","","","","","","","","","","","","","","","","","","","","","","","","","","","","","","","","","","","","","","","","","","","","","","","","","","","","","","","10580","Albany-Schenectady-Troy, NY","TRUE","104","Albany-Schenectady, NY"
"North Westchester","North Westchester","","CT","Connecticut","09180","Southeastern Connecticut","09180","Southeastern Connecticut","41.5809","-72.4012","","","136.6","point","FALSE","FALSE","FALSE","FALSE","America/New_York","4","06415","1840044639","","","","","","","","","","","","","","","","","","","","","","","","","","","","","","","","","","","","","","","","","","","","","","","","","","","","","","","","","","","","","","","","35980","Norwich-New London, CT","TRUE","278","Hartford-East Hartford, CT"
"Clayton","Clayton","","SD","South Dakota","46067","Hutchinson","46067","Hutchinson","43.4436","-97.6578","","","4.3","point","FALSE","FALSE","FALSE","FALSE","America/Chicago","5","57332","1840107789","","","","","","","","","","","","","","","","","","","","","","","","","","","","","","","","","","","","","","","","","","","","","","","","","","","","","","","","","","","","","","","","","","FALSE","",""
"Woodlawn","Woodlawn","","MS","Mississippi","28149","Warren","28149","Warren","32.3765","-90.8107","","","214.2","point","FALSE","FALSE","FALSE","FALSE","America/Chicago","4","39183","1840074572","","","","","","","","","","","","","","","","","","","","","","","","","","","","","","","","","","","","","","","","","","","","","","","","","","","","","","","","","","","","","","","","46980","Vicksburg, MS","FALSE","298","Jackson-Vicksburg-Brookhaven, MS"
"Esserville","Esserville","","VA","Virginia","51195","Wise","51195","Wise","36.9554","-82.6110","","","302.1","point","FALSE","FALSE","FALSE","FALSE","America/New_York","4","24273","1840116580","","","","","","","","","","","","","","","","","","","","","","","","","","","","","","","","","","","","","","","","","","","","","","","","","","","","","","","","","","","","","","","","13720","Big Stone Gap, VA","FALSE","",""
"Bradford Station","Bradford Station","","ME","Maine","23019","Penobscot","23019","Penobscot","45.0667","-68.8411","","","2.2","point","FALSE","FALSE","FALSE","FALSE","America/New_York","5","04410","1840064693","","","","","","","","","","","","","","","","","","","","","","","","","","","","","","","","","","","","","","","","","","","","","","","","","","","","","","","","","","","","","","","","12620","Bangor, ME","TRUE","",""
"Fordham Colony","Fordham Colony","","SD","South Dakota","46025","Clark","46025","Clark","44.7678","-97.9068","0","0","7.7","shape","FALSE","FALSE","TRUE","FALSE","America/Chicago","3","57258","1840107970","","","","","","","","","","","","","","","","","","","","","","","","","","","","","","","","","","","","","0","","","","","","","","","","","","","","","","","","","","","","","","","","","","","FALSE","",""
"Jay City","Jay City","","IN","Indiana","18075","Jay","18075","Jay","40.5673","-84.8486","","","54.1","point","FALSE","FALSE","FALSE","FALSE","America/Indiana/Indianapolis","4","47326","1840054957","","","","","","","","","","","","","","","","","","","","","","","","","","","","","","","","","","","","","","","","","","","","","","","","","","","","","","","","","","","","","","","","","","FALSE","",""
"Shoals","Shoals","","NC","North Carolina","37171","Surry","37171","Surry","36.2740","-80.5112","","","10.0","point","FALSE","FALSE","FALSE","FALSE","America/New_York","5","27043","1840088717","","","","","","","","","","","","","","","","","","","","","","","","","","","","","","","","","","","","","","","","","","","","","","","","","","","","","","","","","","","","","","","","34340","Mount Airy, NC","FALSE","268","Greensboro--Winston-Salem--High Point, NC"
"Omega","Omega","","MS","Mississippi","28051","Holmes","28051","Holmes","33.1235","-90.3131","","","6.3","point","FALSE","FALSE","FALSE","FALSE","America/Chicago","5","39169","1840074368","","","","","","","","","","","","","","","","","","","","","","","","","","","","","","","","","","","","","","","","","","","","","","","","","","","","","","","","","","","","","","","","27140","Jackson, MS","TRUE","298","Jackson-Vicksburg-Brookhaven, MS"
"Rattlesnake","Rattlesnake","","NM","New Mexico","35045","San Juan","35045","San Juan","36.7553","-108.8020","","","15.0","point","FALSE","FALSE","FALSE","FALSE","America/Denver","4","87420","1840082458","","","","","","","","","","","","","","","","","","","","","","","","","","","","","","","","","","","","","","","","","","","","","","","","","","","","","","","","","","","","","","","","22140","Farmington, NM","TRUE","",""
"McElhany","McElhany","","MO","Missouri","29145","Newton","29145","Newton","36.7881","-94.3988","","","12.1","point","FALSE","FALSE","FALSE","FALSE","America/Chicago","4","64850","1840075875","","","","","","","","","","","","","","","","","","","","","","","","","","","","","","","","","","","","","","","","","","","","","","","","","","","","","","","","","","","","","","","","27900","Joplin, MO","TRUE","309","Joplin-Miami, MO-OK"
"Livermore","Livermore","","NH","New Hampshire","33009","Grafton","33009","Grafton","44.0446","-71.4598","","","0.0","shape","FALSE","TRUE","FALSE","FALSE","America/New_York","5","03215","1840146249","","","","","","","","","","","","","","","","","","","","","","","","","","","","","","","","","","","","","","","","","","","","","","","","","","","","","","","","","","","","","","","","30100","Lebanon, NH-VT","FALSE","",""
"Rubottom","Rubottom","","OK","Oklahoma","40085","Love","40085","Love","33.9404","-97.4570","","","9.3","point","FALSE","FALSE","FALSE","FALSE","America/Chicago","5","73463","1840096502","","","","","","","","","","","","","","","","","","","","","","","","","","","","","","","","","","","","","","","","","","","","","","","","","","","","","","","","","","","","","","","","11620","Ardmore, OK","FALSE","",""
"Blessing","Blessing","","OH","Ohio","39047","Fayette","39047","Fayette","39.7026","-83.6035","","","5.6","point","FALSE","FALSE","FALSE","FALSE","America/New_York","5","43128","1840094060","","","","","","","","","","","","","","","","","","","","","","","","","","","","","","","","","","","","","","","","","","","","","","","","","","","","","","","","","","","","","","","","47920","Washington Court House, OH","FALSE","198","Columbus-Marion-Zanesville, OH"
"Sandstone Bluff","Sandstone Bluff","","WI","Wisconsin","55047","Green Lake","55047","Green Lake","43.8172","-88.9671","","","34.9","point","FALSE","FALSE","FALSE","FALSE","America/Chicago","4","54971","1840124093","","","","","","","","","","","","","","","","","","","","","","","","","","","","","","","","","","","","","","","","","","","","","","","","","","","","","","","","","","","","","","","","","","FALSE","",""
"Roxbury Station","Roxbury Station","","CT","Connecticut","09160","Northwest Hills","09160","Northwest Hills","41.5576","-73.3312","","","52.1","point","FALSE","FALSE","FALSE","FALSE","America/New_York","4","06783","1840044707","","","","","","","","","","","","","","","","","","","","","","","","","","","","","","","","","","","","","","","","","","","","","","","","","","","","","","","","","","","","","","","","45860","Torrington, CT","FALSE","408","New York-Newark, NY-NJ-CT-PA"
"South Columbia","South Columbia","","NY","New York","36043","Herkimer","36043","Herkimer","42.8892","-75.0071","","","26.2","point","FALSE","FALSE","FALSE","FALSE","America/New_York","4","13439","1840085359","","","","","","","","","","","","","","","","","","","","","","","","","","","","","","","","","","","","","","","","","","","","","","","","","","","","","","","","","","","","","","","","46540","Utica-Rome, NY","TRUE","",""
"South Corinth","South Corinth","","NY","New York","36091","Saratoga","36091","Saratoga","43.1965","-73.8673","","","89.6","point","FALSE","FALSE","FALSE","FALSE","America/New_York","4","12859","1840085360","","","","","","","","","","","","","","","","","","","","","","","","","","","","","","","","","","","","","","","","","","","","","","","","","","","","","","","","","","","","","","","","10580","Albany-Schenectady-Troy, NY","TRUE","104","Albany-Schenectady, NY"
"South Centerville","South Centerville","","NY","New York","36071","Orange","36071","Orange","41.3856","-74.5221","","","99.4","point","FALSE","FALSE","FALSE","FALSE","America/New_York","4","10940","1840085358","","","","","","","","","","","","","","","","","","","","","","","","","","","","","","","","","","","","","","","","","","","","","","","","","","","","","","","","","","","","","","","","39100","Poughkeepsie-Newburgh-Middletown, NY","TRUE","408","New York-Newark, NY-NJ-CT-PA"
"South Cortland","South Cortland","","NY","New York","36023","Cortland","36023","Cortland","42.5648","-76.2222","","","56.7","point","FALSE","FALSE","FALSE","FALSE","America/New_York","4","13045","1840085361","","","","","","","","","","","","","","","","","","","","","","","","","","","","","","","","","","","","","","","","","","","","","","","","","","","","","","","","","","","","","","","","18660","Cortland, NY","FALSE","296","Ithaca-Cortland, NY"
"Riverview Farms","Riverview Farms","","CA","California","06073","San Diego","06073","San Diego","32.8450","-116.9320","","","1745.0","point","FALSE","FALSE","FALSE","FALSE","America/Los_Angeles","4","92040","1840028135","","","","","","","","","","","","","","","","","","","","","","","","","","","","","","","","","","","","","","","","","","","","","","","","","","","","","","","","","","","","","","","","41740","San Diego-Chula Vista-Carlsbad, CA","TRUE","",""
"Lelavale","Lelavale","","TX","Texas","48199","Hardin","48199","Hardin","30.4035","-94.4841","","","1.2","point","FALSE","FALSE","FALSE","FALSE","America/Chicago","5","77625","1840113718","","","","","","","","","","","","","","","","","","","","","","","","","","","","","","","","","","","","","","","","","","","","","","","","","","","","","","","","","","","","","","","","13140","Beaumont-Port Arthur, TX","TRUE","",""
"McPherron","McPherron","","PA","Pennsylvania","42033","Clearfield","42033","Clearfield","40.7726","-78.6156","","","8.4","point","FALSE","FALSE","FALSE","FALSE","America/New_York","5","15753","1840100328","","","","","","","","","","","","","","","","","","","","","","","","","","","","","","","","","","","","","","","","","","","","","","","","","","","","","","","","","","","","","","","","20180","DuBois, PA","FALSE","524","State College-DuBois, PA"
"Whitehurst","Whitehurst","","NC","North Carolina","37147","Pitt","37147","Pitt","35.7660","-77.3322","","","11.9","point","FALSE","FALSE","FALSE","FALSE","America/New_York","4","27871","1840088821","","","","","","","","","","","","","","","","","","","","","","","","","","","","","","","","","","","","","","","","","","","","","","","","","","","","","","","","","","","","","","","","24780","Greenville, NC","TRUE","272","Greenville-Kinston-Washington, NC"
"McVille","McVille","","PA","Pennsylvania","42005","Armstrong","42005","Armstrong","40.7259","-79.6028","","","53.0","point","FALSE","FALSE","FALSE","FALSE","America/New_York","4","16229","1840100329","","","","","","","","","","","","","","","","","","","","","","","","","","","","","","","","","","","","","","","","","","","","","","","","","","","","","","","","","","","","","","","","38300","Pittsburgh, PA","TRUE","430","Pittsburgh-New Castle-Weirton, PA-OH-WV"
"Rochdale","Rochdale","","MS","Mississippi","28011","Bolivar","28011","Bolivar","34.0996","-90.8504","","","8.6","point","FALSE","FALSE","FALSE","FALSE","America/Chicago","5","38740","1840074442","","","","","","","","","","","","","","","","","","","","","","","","","","","","","","","","","","","","","","","","","","","","","","","","","","","","","","","","","","","","","","","","17260","Clarksdale, MS","FALSE","",""
"Oakville","Oakville","","NJ","New Jersey","34001","Atlantic","34001","Atlantic","39.3621","-74.7566","","","3.6","point","FALSE","FALSE","FALSE","FALSE","America/New_York","5","08330","1840081147","","","","","","","","","","","","","","","","","","","","","","","","","","","","","","","","","","","","","","","","","","","","","","","","","","","","","","","","","","","","","","","","12100","Atlantic City-Hammonton, NJ","TRUE","428","Philadelphia-Reading-Camden, PA-NJ-DE-MD"
"Oakland Mills","Oakland Mills","","NJ","New Jersey","34025","Monmouth","34025","Monmouth","40.2332","-74.3443","","","283.4","point","FALSE","FALSE","FALSE","FALSE","America/New_York","4","07726","1840081146","","","","","","","","","","","","","","","","","","","","","","","","","","","","","","","","","","","","","","","","","","","","","","","","","","","","","","","","","","","","","","","","35620","New York-Newark-Jersey City, NY-NJ-PA","TRUE","408","New York-Newark, NY-NJ-CT-PA"
"Western Addition","Western Addition","","CA","California","06075","San Francisco","06075","San Francisco","37.7852","-122.4469","","","10035.0","point","FALSE","FALSE","FALSE","FALSE","America/Los_Angeles","4","94118","1840130827","","","","","","","","","","","","","","","","","","","","","","","","","","","","","","","","","","","","","","","","","","","","","","","","","","","","","","","","","","","","","","","","41860","San Francisco-Oakland-Berkeley, CA","TRUE","488","San Jose-San Francisco-Oakland, CA"
"Westport","Westport","","CA","California","06045","Mendocino","06045","Mendocino","39.6357","-123.7831","","","3.6","point","FALSE","FALSE","FALSE","FALSE","America/Los_Angeles","5","95488","1840028203","","","","","","","","","","","","","","","","","","","","","","","","","","","","","","","","","","","","","","","","","","","","","","","","","","","","","","","","","","","","","","","","46380","Ukiah, CA","FALSE","",""
"Westville","Westville","","CA","California","06061","Placer","06061","Placer","39.1749","-120.6480","","","0.0","point","FALSE","FALSE","FALSE","FALSE","America/Los_Angeles","5","95631","1840130828","","","","","","","","","","","","","","","","","","","","","","","","","","","","","","","","","","","","","","","","","","","","","","","","","","","","","","","","","","","","","","","","40900","Sacramento-Roseville-Folsom, CA","TRUE","472","Sacramento-Roseville, CA"
"Oakwood Beach","Oakwood Beach","","NJ","New Jersey","34033","Salem","34033","Salem","39.5551","-75.5185","","","382.2","point","FALSE","FALSE","FALSE","FALSE","America/New_York","4","08079","1840081148","","","","","","","","","","","","","","","","","","","","","","","","","","","","","","","","","","","","","","","","","","","","","","","","","","","","","","","","","","","","","","","","37980","Philadelphia-Camden-Wilmington, PA-NJ-DE-MD","TRUE","428","Philadelphia-Reading-Camden, PA-NJ-DE-MD"
"Santa Susana Knolls","Santa Susana Knolls","","CA","California","06111","Ventura","06111","Ventura","34.2622","-118.6737","","","1460.1","point","FALSE","FALSE","FALSE","FALSE","America/Los_Angeles","4","93063","1840131297","","","","","","","","","","","","","","","","","","","","","","","","","","","","","","","","","","","","","","","","","","","","","","","","","","","","","","","","","","","","","","","","37100","Oxnard-Thousand Oaks-Ventura, CA","TRUE","348","Los Angeles-Long Beach, CA"
"Santa Ana Heights","Santa Ana Heights","","CA","California","06059","Orange","06059","Orange","33.6525","-117.8956","","","4239.9","point","FALSE","FALSE","FALSE","FALSE","America/Los_Angeles","4","92627","1840028272","","","","","","","","","","","","","","","","","","","","","","","","","","","","","","","","","","","","","","","","","","","","","","","","","","","","","","","","","","","","","","","","31080","Los Angeles-Long Beach-Anaheim, CA","TRUE","348","Los Angeles-Long Beach, CA"
"Delp","Delp","","IN","Indiana","18157","Tippecanoe","18157","Tippecanoe","40.4895","-86.8092","","","160.0","point","FALSE","FALSE","FALSE","FALSE","America/Indiana/Indianapolis","4","47905","1840054568","","","","","","","","","","","","","","","","","","","","","","","","","","","","","","","","","","","","","","","","","","","","","","","","","","","","","","","","","","","","","","","","29200","Lafayette-West Lafayette, IN","TRUE","320","Lafayette-West Lafayette-Frankfort, IN"
"Fishhook","Fishhook","","IL","Illinois","17149","Pike","17149","Pike","39.8056","-90.8854","","","26.1","point","FALSE","FALSE","FALSE","FALSE","America/Chicago","4","62314","1840051208","","","","","","","","","","","","","","","","","","","","","","","","","","","","","","","","","","","","","","","","","","","","","","","","","","","","","","","","","","","","","","","","","","FALSE","",""
"Deming","Deming","","IN","Indiana","18057","Hamilton","18057","Hamilton","40.1153","-86.0986","","","67.4","point","FALSE","FALSE","FALSE","FALSE","America/Indiana/Indianapolis","4","46034","1840054569","","","","","","","","","","","","","","","","","","","","","","","","","","","","","","","","","","","","","","","","","","","","","","","","","","","","","","","","","","","","","","","","26900","Indianapolis-Carmel-Anderson, IN","TRUE","294","Indianapolis-Carmel-Muncie, IN"
"Interlachen","Interlachen","","OR","Oregon","41051","Multnomah","41051","Multnomah","45.5518","-122.4468","","","402.5","point","FALSE","FALSE","FALSE","FALSE","America/Los_Angeles","4","97024","1840097705","","","","","","","","","","","","","","","","","","","","","","","","","","","","","","","","","","","","","","","","","","","","","","","","","","","","","","","","","","","","","","","","38900","Portland-Vancouver-Hillsboro, OR-WA","TRUE","440","Portland-Vancouver-Salem, OR-WA"
"Barlows Landing","Barlows Landing","","MA","Massachusetts","25001","Barnstable","25001","Barnstable","41.6909","-70.6250","","","453.2","point","FALSE","FALSE","FALSE","FALSE","America/New_York","4","02559","1840069788","","","","","","","","","","","","","","","","","","","","","","","","","","","","","","","","","","","","","","","","","","","","","","","","","","","","","","","","","","","","","","","","12700","Barnstable Town, MA","TRUE","148","Boston-Worcester-Providence, MA-RI-NH-CT"
"Kanawha Drive","Kanawha Drive","","WV","West Virginia","54021","Gilmer","54021","Gilmer","38.9537","-80.8996","","","35.3","point","FALSE","FALSE","FALSE","FALSE","America/New_York","4","26351","1840121008","","","","","","","","","","","","","","","","","","","","","","","","","","","","","","","","","","","","","","","","","","","","","","","","","","","","","","","","","","","","","","","","16620","Charleston, WV","TRUE","170","Charleston-Huntington-Ashland, WV-OH-KY"
"Fairhope","Fairhope","","GA","Georgia","13191","McIntosh","13191","McIntosh","31.5374","-81.3887","","","47.0","point","FALSE","FALSE","FALSE","FALSE","America/New_York","4","31331","1840048913","","","","","","","","","","","","","","","","","","","","","","","","","","","","","","","","","","","","","","","","","","","","","","","","","","","","","","","","","","","","","","","","15260","Brunswick, GA","TRUE","",""
"Fain","Fain","","GA","Georgia","13291","Union","13291","Union","34.8245","-83.8713","","","26.9","point","FALSE","FALSE","FALSE","FALSE","America/New_York","4","30512","1840048912","","","","","","","","","","","","","","","","","","","","","","","","","","","","","","","","","","","","","","","","","","","","","","","","","","","","","","","","","","","","","","","","","","FALSE","",""
"Jacobs Prairie","Jacobs Prairie","","MN","Minnesota","27145","Stearns","27145","Stearns","45.4869","-94.3931","","","14.2","point","FALSE","FALSE","FALSE","FALSE","America/Chicago","4","56320","1840071448","","","","","","","","","","","","","","","","","","","","","","","","","","","","","","","","","","","","","","","","","","","","","","","","","","","","","","","","","","","","","","","","41060","St. Cloud, MN","TRUE","378","Minneapolis-St. Paul, MN-WI"
"Cliff Haven","Cliff Haven","","NY","New York","36019","Clinton","36019","Clinton","44.6587","-73.4410","","","1104.2","point","FALSE","FALSE","FALSE","FALSE","America/New_York","4","12901","1840083309","","","","","","","","","","","","","","","","","","","","","","","","","","","","","","","","","","","","","","","","","","","","","","","","","","","","","","","","","","","","","","","","38460","Plattsburgh, NY","FALSE","",""
"Cleverdale","Cleverdale","","NY","New York","36113","Warren","36113","Warren","43.4773","-73.6426","","","199.7","point","FALSE","FALSE","FALSE","FALSE","America/New_York","4","12804","1840083308","","","","","","","","","","","","","","","","","","","","","","","","","","","","","","","","","","","","","","","","","","","","","","","","","","","","","","","","","","","","","","","","24020","Glens Falls, NY","TRUE","104","Albany-Schenectady, NY"
"Jacobson","Jacobson","","MN","Minnesota","27001","Aitkin","27001","Aitkin","47.0008","-93.2674","","","5.9","point","FALSE","FALSE","FALSE","FALSE","America/Chicago","5","55752","1840031830","","","","","","","","","","","","","","","","","","","","","","","","","","","","","","","","","","","","","","","","","","","","","","","","","","","","","","","","","","","","","","","","","","FALSE","",""
"Lumber","Lumber","","AR","Arkansas","05027","Columbia","05027","Columbia","33.3504","-93.3474","","","12.8","point","FALSE","FALSE","FALSE","FALSE","America/Chicago","4","71770","1840039525","","","","","","","","","","","","","","","","","","","","","","","","","","","","","","","","","","","","","","","","","","","","","","","","","","","","","","","","","","","","","","","","31620","Magnolia, AR","FALSE","",""
"Giddensville","Giddensville","","NC","North Carolina","37163","Sampson","37163","Sampson","35.1391","-78.2183","","","13.4","point","FALSE","FALSE","FALSE","FALSE","America/New_York","4","28341","1840088330","","","","","","","","","","","","","","","","","","","","","","","","","","","","","","","","","","","","","","","","","","","","","","","","","","","","","","","","","","","","","","","","","","FALSE","",""
"Ryes","Ryes","","NC","North Carolina","37085","Harnett","37085","Harnett","35.4324","-79.0006","","","68.7","point","FALSE","FALSE","FALSE","FALSE","America/New_York","4","27505","1840088684","","","","","","","","","","","","","","","","","","","","","","","","","","","","","","","","","","","","","","","","","","","","","","","","","","","","","","","","","","","","","","","","22180","Fayetteville, NC","TRUE","246","Fayetteville-Sanford-Lumberton, NC"
"Prairieville","Prairieville","","AL","Alabama","01065","Hale","01065","Hale","32.5101","-87.6945","","","12.9","point","FALSE","FALSE","FALSE","FALSE","America/Chicago","4","36742","1840042956","","","","","","","","","","","","","","","","","","","","","","","","","","","","","","","","","","","","","","","","","","","","","","","","","","","","","","","","","","","","","","","","46220","Tuscaloosa, AL","TRUE","",""
"Radnor","Radnor","","CA","California","06107","Tulare","06107","Tulare","35.8302","-119.2618","","","3.9","point","FALSE","FALSE","FALSE","FALSE","America/Los_Angeles","5","93215","1840129925","","","","","","","","","","","","","","","","","","","","","","","","","","","","","","","","","","","","","","","","","","","","","","","","","","","","","","","","","","","","","","","","47300","Visalia, CA","TRUE","",""
"East Concord","East Concord","","VT","Vermont","50009","Essex","50009","Essex","44.4248","-71.7537","","","37.1","point","FALSE","FALSE","FALSE","FALSE","America/New_York","4","05906","1840114771","","","","","","","","","","","","","","","","","","","","","","","","","","","","","","","","","","","","","","","","","","","","","","","","","","","","","","","","","","","","","","","","13620","Berlin, NH","FALSE","",""
"South Waterford","South Waterford","","ME","Maine","23017","Oxford","23017","Oxford","44.1665","-70.7167","","","58.8","point","FALSE","FALSE","FALSE","FALSE","America/New_York","4","04088","1840065428","","","","","","","","","","","","","","","","","","","","","","","","","","","","","","","","","","","","","","","","","","","","","","","","","","","","","","","","","","","","","","","","38860","Portland-South Portland, ME","TRUE","438","Portland-Lewiston-South Portland, ME"
"Central College","Central College","","OH","Ohio","39049","Franklin","39049","Franklin","40.1020","-82.8882","","","690.4","point","FALSE","FALSE","FALSE","FALSE","America/New_York","4","43081","1840093127","","","","","","","","","","","","","","","","","","","","","","","","","","","","","","","","","","","","","","","","","","","","","","","","","","","","","","","","","","","","","","","","18140","Columbus, OH","TRUE","198","Columbus-Marion-Zanesville, OH"
"Chandlersville","Chandlersville","","OH","Ohio","39119","Muskingum","39119","Muskingum","39.8984","-81.8274","","","29.4","point","FALSE","FALSE","FALSE","FALSE","America/New_York","4","43727","1840093128","","","","","","","","","","","","","","","","","","","","","","","","","","","","","","","","","","","","","","","","","","","","","","","","","","","","","","","","","","","","","","","","49780","Zanesville, OH","FALSE","198","Columbus-Marion-Zanesville, OH"
"Chestnut Gap","Chestnut Gap","","KY","Kentucky","21189","Owsley","21189","Owsley","37.4587","-83.6588","","","45.6","point","FALSE","FALSE","FALSE","FALSE","America/New_York","4","41314","1840062704","","","","","","","","","","","","","","","","","","","","","","","","","","","","","","","","","","","","","","","","","","","","","","","","","","","","","","","","","","","","","","","","","","FALSE","",""
"East Killingly","East Killingly","","CT","Connecticut","09150","Northeastern Connecticut","09150","Northeastern Connecticut","41.8493","-71.8187","","","130.2","point","FALSE","FALSE","FALSE","FALSE","America/New_York","4","06243","1840044493","","","","","","","","","","","","","","","","","","","","","","","","","","","","","","","","","","","","","","","","","","","","","","","","","","","","","","","","","","","","","","","","49340","Worcester, MA-CT","TRUE","148","Boston-Worcester-Providence, MA-RI-NH-CT"
"East Hartford Gardens","East Hartford Gardens","","CT","Connecticut","09110","Capitol","09110","Capitol","41.7354","-72.6129","","","1311.6","point","FALSE","FALSE","FALSE","FALSE","America/New_York","4","06118","1840044491","","","","","","","","","","","","","","","","","","","","","","","","","","","","","","","","","","","","","","","","","","","","","","","","","","","","","","","","","","","","","","","","25540","Hartford-East Hartford-Middletown, CT","TRUE","278","Hartford-East Hartford, CT"
"East Hartland","East Hartland","","CT","Connecticut","09160","Northwest Hills","09160","Northwest Hills","41.9990","-72.9054","","","121.0","point","FALSE","FALSE","FALSE","FALSE","America/New_York","4","06027","1840044492","","","","","","","","","","","","","","","","","","","","","","","","","","","","","","","","","","","","","","","","","","","","","","","","","","","","","","","","","","","","","","","","25540","Hartford-East Hartford-Middletown, CT","TRUE","278","Hartford-East Hartford, CT"
"Phillips Point","Phillips Point","","MA","Massachusetts","25009","Essex","25009","Essex","42.4640","-70.8953","","","1137.2","point","FALSE","FALSE","FALSE","FALSE","America/New_York","4","01907","1840069506","","","","","","","","","","","","","","","","","","","","","","","","","","","","","","","","","","","","","","","","","","","","","","","","","","","","","","","","","","","","","","","","14460","Boston-Cambridge-Newton, MA-NH","TRUE","148","Boston-Worcester-Providence, MA-RI-NH-CT"
"Brisbane","Brisbane","","ND","North Dakota","38037","Grant","38037","Grant","46.3425","-101.4910","","","0.3","point","FALSE","FALSE","FALSE","FALSE","America/Denver","5","58529","1840091068","","","","","","","","","","","","","","","","","","","","","","","","","","","","","","","","","","","","","","","","","","","","","","","","","","","","","","","","","","","","","","","","13900","Bismarck, ND","TRUE","",""
"Winthrop Beach","Winthrop Beach","","MA","Massachusetts","25025","Suffolk","25025","Suffolk","42.3779","-70.9731","","","7703.7","point","FALSE","FALSE","FALSE","FALSE","America/New_York","4","02152","1840069505","","","","","","","","","","","","","","","","","","","","","","","","","","","","","","","","","","","","","","","","","","","","","","","","","","","","","","","","","","","","","","","","14460","Boston-Cambridge-Newton, MA-NH","TRUE","148","Boston-Worcester-Providence, MA-RI-NH-CT"
"Radley","Radley","","IN","Indiana","18053","Grant","18053","Grant","40.4364","-85.7336","","","16.2","point","FALSE","FALSE","FALSE","FALSE","America/Indiana/Indianapolis","4","46938","1840055463","","","","","","","","","","","","","","","","","","","","","","","","","","","","","","","","","","","","","","","","","","","","","","","","","","","","","","","","","","","","","","","","31980","Marion, IN","FALSE","",""
"Radnor","Radnor","","IN","Indiana","18015","Carroll","18015","Carroll","40.5095","-86.6350","","","65.6","point","FALSE","FALSE","FALSE","FALSE","America/Indiana/Indianapolis","4","46923","1840055464","","","","","","","","","","","","","","","","","","","","","","","","","","","","","","","","","","","","","","","","","","","","","","","","","","","","","","","","","","","","","","","","29200","Lafayette-West Lafayette, IN","TRUE","320","Lafayette-West Lafayette-Frankfort, IN"
