"city","city_ascii","city_alt","state_id","state_name","county_fips","county_name","county_fips_all","county_name_all","lat","lng","population","population_proper","density","source","military","incorporated","cdp","township","timezone","ranking","zips","id","age_median","age_under_10","age_10_to_19","age_20s","age_30s","age_40s","age_50s","age_60s","age_70s","age_over_80","age_over_65","age_18_to_24","age_over_18","male","female","married","divorced","never_married","widowed","family_size","family_dual_income","income_household_median","income_household_under_5","income_household_5_to_10","income_household_10_to_15","income_household_15_to_20","income_household_20_to_25","income_household_25_to_35","income_household_35_to_50","income_household_50_to_75","income_household_75_to_100","income_household_100_to_150","income_household_150_over","income_household_six_figure","income_individual_median","home_ownership","housing_units","home_value","rent_median","rent_burden","education_less_highschool","education_highschool","education_some_college","education_bachelors","education_graduate","education_college_or_above","education_stem_degree","labor_force_participation","unemployment_rate","race_white","race_black","race_asian","race_native","race_pacific","race_other","race_multiple","hispanic","disabled","poverty","limited_english","commute_time","health_uninsured","veteran","cbsa_fips","cbsa_name","cbsa_metro","csa_fips","csa_name"
"Piper","Piper","","OK","Oklahoma","40093","Major","40093","Major","36.1742","-98.2676","","","0.2","point","FALSE","FALSE","FALSE","FALSE","America/Chicago","5","73763","1840097020","","","","","","","","","","","","","","","","","","","","","","","","","","","","","","","","","","","","","","","","","","","","","","","","","","","","","","","","","","","","","","","","","","FALSE","",""
"Verlie","Verlie","","AL","Alabama","01117","Shelby","01117","Shelby","33.2132","-86.8019","","","47.6","point","FALSE","FALSE","FALSE","FALSE","America/Chicago","4","35007","1840041886","","","","","","","","","","","","","","","","","","","","","","","","","","","","","","","","","","","","","","","","","","","","","","","","","","","","","","","","","","","","","","","","13820","Birmingham-Hoover, AL","TRUE","142","Birmingham-Hoover-Talladega, AL"
"Gaitherville","Gaitherville","","TN","Tennessee","47099","Lawrence","47099","Lawrence","35.2456","-87.3653","","","34.4","point","FALSE","FALSE","FALSE","FALSE","America/Chicago","4","38464","1840109733","","","","","","","","","","","","","","","","","","","","","","","","","","","","","","","","","","","","","","","","","","","","","","","","","","","","","","","","","","","","","","","","29980","Lawrenceburg, TN","FALSE","400","Nashville-Davidson--Murfreesboro, TN"
"Pearland","Pearland","","CA","California","06037","Los Angeles","06037","Los Angeles","34.5611","-118.0403","","","3834.4","point","FALSE","FALSE","FALSE","FALSE","America/Los_Angeles","4","93552","1840131227","","","","","","","","","","","","","","","","","","","","","","","","","","","","","","","","","","","","","","","","","","","","","","","","","","","","","","","","","","","","","","","","31080","Los Angeles-Long Beach-Anaheim, CA","TRUE","348","Los Angeles-Long Beach, CA"
"Raymore","Raymore","","WI","Wisconsin","55081","Monroe","55081","Monroe","43.9975","-90.6193","","","0.0","point","FALSE","FALSE","FALSE","FALSE","America/Chicago","5","54660","1840124502","","","","","","","","","","","","","","","","","","","","","","","","","","","","","","","","","","","","","","","","","","","","","","","","","","","","","","","","","","","","","","","","","","FALSE","",""
"Lester","Lester","","WA","Washington","53033","King","53033","King","47.2093","-121.4940","","","0.0","point","FALSE","FALSE","FALSE","FALSE","America/Los_Angeles","5","98022","1840033765","","","","","","","","","","","","","","","","","","","","","","","","","","","","","","","","","","","","","","","","","","","","","","","","","","","","","","","","","","","","","","","","42660","Seattle-Tacoma-Bellevue, WA","TRUE","500","Seattle-Tacoma, WA"
"Red Banks","Red Banks","","WI","Wisconsin","55135","Waupaca","55135","Waupaca","44.2769","-88.8587","","","27.9","point","FALSE","FALSE","FALSE","FALSE","America/Chicago","4","54940","1840124503","","","","","","","","","","","","","","","","","","","","","","","","","","","","","","","","","","","","","","","","","","","","","","","","","","","","","","","","","","","","","","","","","","FALSE","",""
"Millburne","Millburne","","WY","Wyoming","56041","Uinta","56041","Uinta","41.2583","-110.4127","","","11.1","point","FALSE","FALSE","FALSE","FALSE","America/Denver","4","82933","1840126066","","","","","","","","","","","","","","","","","","","","","","","","","","","","","","","","","","","","","","","","","","","","","","","","","","","","","","","","","","","","","","","","21740","Evanston, WY","FALSE","",""
"Pere Cheney","Pere Cheney","","MI","Michigan","26039","Crawford","26039","Crawford","44.5775","-84.6378","","","3.9","point","FALSE","FALSE","FALSE","FALSE","America/Detroit","5","48653","1840127581","","","","","","","","","","","","","","","","","","","","","","","","","","","","","","","","","","","","","","","","","","","","","","","","","","","","","","","","","","","","","","","","","","FALSE","",""
"Gainesville","Gainesville","","TN","Tennessee","47167","Tipton","47167","Tipton","35.4134","-89.6092","","","28.6","point","FALSE","FALSE","FALSE","FALSE","America/Chicago","4","38049","1840109732","","","","","","","","","","","","","","","","","","","","","","","","","","","","","","","","","","","","","","","","","","","","","","","","","","","","","","","","","","","","","","","","32820","Memphis, TN-MS-AR","TRUE","368","Memphis-Forrest City, TN-MS-AR"
"Forestdale","Forestdale","","OH","Ohio","39087","Lawrence","39087","Lawrence","38.5023","-82.6035","","","67.1","point","FALSE","FALSE","FALSE","FALSE","America/New_York","4","45638","1840094776","","","","","","","","","","","","","","","","","","","","","","","","","","","","","","","","","","","","","","","","","","","","","","","","","","","","","","","","","","","","","","","","26580","Huntington-Ashland, WV-KY-OH","TRUE","170","Charleston-Huntington-Ashland, WV-OH-KY"
"Rock Island","Rock Island","","TN","Tennessee","47177","Warren","47177","Warren","35.7923","-85.6133","","","53.0","point","FALSE","FALSE","FALSE","FALSE","America/Chicago","4","38581","1840110489","","","","","","","","","","","","","","","","","","","","","","","","","","","","","","","","","","","","","","","","","","","","","","","","","","","","","","","","","","","","","","","","32660","McMinnville, TN","FALSE","",""
"Little Emory","Little Emory","","TN","Tennessee","47145","Roane","47145","Roane","35.9576","-84.4833","","","113.9","point","FALSE","FALSE","FALSE","FALSE","America/New_York","4","37748","1840110069","","","","","","","","","","","","","","","","","","","","","","","","","","","","","","","","","","","","","","","","","","","","","","","","","","","","","","","","","","","","","","","","28940","Knoxville, TN","TRUE","315","Knoxville-Morristown-Sevierville, TN"
"Fly","Fly","","OH","Ohio","39111","Monroe","39111","Monroe","39.5648","-81.0084","","","18.2","point","FALSE","FALSE","FALSE","FALSE","America/New_York","4","45767","1840094775","","","","","","","","","","","","","","","","","","","","","","","","","","","","","","","","","","","","","","","","","","","","","","","","","","","","","","","","","","","","","","","","","","FALSE","",""
"Breeds","Breeds","","IL","Illinois","17057","Fulton","17057","Fulton","40.5553","-89.9204","","","21.6","point","FALSE","FALSE","FALSE","FALSE","America/Chicago","4","61520","1840051042","","","","","","","","","","","","","","","","","","","","","","","","","","","","","","","","","","","","","","","","","","","","","","","","","","","","","","","","","","","","","","","","37900","Peoria, IL","TRUE","",""
"Camp Edwards","Camp Edwards","","MA","Massachusetts","25001","Barnstable","25001","Barnstable","41.6571","-70.5439","","","0.0","point","FALSE","FALSE","FALSE","FALSE","America/New_York","5","02542","1840070003","","","","","","","","","","","","","","","","","","","","","","","","","","","","","","","","","","","","","","","","","","","","","","","","","","","","","","","","","","","","","","","","12700","Barnstable Town, MA","TRUE","148","Boston-Worcester-Providence, MA-RI-NH-CT"
"Champ","Champ","","TN","Tennessee","47103","Lincoln","47103","Lincoln","35.1554","-86.3853","","","3.8","point","FALSE","FALSE","FALSE","FALSE","America/Chicago","5","37359","1840111355","","","","","","","","","","","","","","","","","","","","","","","","","","","","","","","","","","","","","","","","","","","","","","","","","","","","","","","","","","","","","","","","46100","Tullahoma-Manchester, TN","FALSE","",""
"Waco","Waco","","OH","Ohio","39151","Stark","39151","Stark","40.7787","-81.3471","","","258.4","point","FALSE","FALSE","FALSE","FALSE","America/New_York","4","44707","1840092917","","","","","","","","","","","","","","","","","","","","","","","","","","","","","","","","","","","","","","","","","","","","","","","","","","","","","","","","","","","","","","","","15940","Canton-Massillon, OH","TRUE","184","Cleveland-Akron-Canton, OH"
"Newport","Newport","","TX","Texas","48077","Clay","48077","Clay","33.4679","-98.0164","","","18.4","point","FALSE","FALSE","FALSE","FALSE","America/Chicago","4","76230","1840022912","","","","","","","","","","","","","","","","","","","","","","","","","","","","","","","","","","","","","","","","","","","","","","","","","","","","","","","","","","","","","","","","48660","Wichita Falls, TX","TRUE","",""
"Irasville","Irasville","","VT","Vermont","50023","Washington","50023","Washington","44.1814","-72.8404","","","138.9","point","FALSE","FALSE","FALSE","FALSE","America/New_York","4","05673","1840115212","","","","","","","","","","","","","","","","","","","","","","","","","","","","","","","","","","","","","","","","","","","","","","","","","","","","","","","","","","","","","","","","12740","Barre, VT","FALSE","162","Burlington-South Burlington-Barre, VT"
"L'Esperance","L'Esperance","","VI","Virgin Islands","78020","St. John","78020","St. John","18.3402","-64.7593","","","94.6","point","FALSE","FALSE","FALSE","FALSE","America/St_Thomas","4","00830","1850127043","","","","","","","","","","","","","","","","","","","","","","","","","","","","","","","","","","","","","","","","","","","","","","","","","","","","","","","","","","","","","","","","","","FALSE","",""
"Foard City","Foard City","","TX","Texas","48155","Foard","48155","Foard","33.8809","-99.7998","","","0.0","point","FALSE","FALSE","FALSE","FALSE","America/Chicago","5","79227","1840033065","","","","","","","","","","","","","","","","","","","","","","","","","","","","","","","","","","","","","","","","","","","","","","","","","","","","","","","","","","","","","","","","","","FALSE","",""
"Knight","Knight","","VI","Virgin Islands","78010","St. Croix","78010","St. Croix","17.7553","-64.5940","","","74.3","point","FALSE","FALSE","FALSE","FALSE","America/St_Thomas","4","00820","1850127042","","","","","","","","","","","","","","","","","","","","","","","","","","","","","","","","","","","","","","","","","","","","","","","","","","","","","","","","","","","","","","","","","","FALSE","",""
"La Grande Princesse","La Grande Princesse","","VI","Virgin Islands","78010","St. Croix","78010","St. Croix","17.7575","-64.7363","","","505.5","point","FALSE","FALSE","FALSE","FALSE","America/St_Thomas","4","00820","1850127044","","","","","","","","","","","","","","","","","","","","","","","","","","","","","","","","","","","","","","","","","","","","","","","","","","","","","","","","","","","","","","","","","","FALSE","",""
"La Grange","La Grange","","VI","Virgin Islands","78010","St. Croix","78010","St. Croix","17.7191","-64.8785","","","228.4","point","FALSE","FALSE","FALSE","FALSE","America/St_Thomas","4","00840","1850127045","","","","","","","","","","","","","","","","","","","","","","","","","","","","","","","","","","","","","","","","","","","","","","","","","","","","","","","","","","","","","","","","","","FALSE","",""
"Shingiss","Shingiss","","PA","Pennsylvania","42125","Washington","42125","Washington","40.2401","-80.2095","","","425.2","point","FALSE","FALSE","FALSE","FALSE","America/New_York","4","15342","1840103850","","","","","","","","","","","","","","","","","","","","","","","","","","","","","","","","","","","","","","","","","","","","","","","","","","","","","","","","","","","","","","","","38300","Pittsburgh, PA","TRUE","430","Pittsburgh-New Castle-Weirton, PA-OH-WV"
"Shieldsburg","Shieldsburg","","PA","Pennsylvania","42129","Westmoreland","42129","Westmoreland","40.3926","-79.4378","","","106.0","point","FALSE","FALSE","FALSE","FALSE","America/New_York","4","15670","1840103848","","","","","","","","","","","","","","","","","","","","","","","","","","","","","","","","","","","","","","","","","","","","","","","","","","","","","","","","","","","","","","","","38300","Pittsburgh, PA","TRUE","430","Pittsburgh-New Castle-Weirton, PA-OH-WV"
"Shettleston","Shettleston","","PA","Pennsylvania","42027","Centre","42027","Centre","41.0795","-77.8928","","","0.0","point","FALSE","FALSE","FALSE","FALSE","America/New_York","5","16829","1840103847","","","","","","","","","","","","","","","","","","","","","","","","","","","","","","","","","","","","","","","","","","","","","","","","","","","","","","","","","","","","","","","","44300","State College, PA","TRUE","524","State College-DuBois, PA"
"Shelvey","Shelvey","","PA","Pennsylvania","42047","Elk","42047","Elk","41.3698","-78.6500","","","26.8","point","FALSE","FALSE","FALSE","FALSE","America/New_York","4","15846","1840103846","","","","","","","","","","","","","","","","","","","","","","","","","","","","","","","","","","","","","","","","","","","","","","","","","","","","","","","","","","","","","","","","41260","St. Marys, PA","FALSE","",""
"Sheeder","Sheeder","","PA","Pennsylvania","42029","Chester","42029","Chester","40.1518","-75.6199","","","176.8","point","FALSE","FALSE","FALSE","FALSE","America/New_York","4","19475","1840103845","","","","","","","","","","","","","","","","","","","","","","","","","","","","","","","","","","","","","","","","","","","","","","","","","","","","","","","","","","","","","","","","37980","Philadelphia-Camden-Wilmington, PA-NJ-DE-MD","TRUE","428","Philadelphia-Reading-Camden, PA-NJ-DE-MD"
"Shaytown","Shaytown","","PA","Pennsylvania","42105","Potter","42105","Potter","41.9062","-78.1725","","","0.6","point","FALSE","FALSE","FALSE","FALSE","America/New_York","5","16748","1840103844","","","","","","","","","","","","","","","","","","","","","","","","","","","","","","","","","","","","","","","","","","","","","","","","","","","","","","","","","","","","","","","","","","FALSE","",""
"Shinglebury","Shinglebury","","PA","Pennsylvania","42117","Tioga","42117","Tioga","41.8926","-77.2966","","","20.5","point","FALSE","FALSE","FALSE","FALSE","America/New_York","4","16935","1840103851","","","","","","","","","","","","","","","","","","","","","","","","","","","","","","","","","","","","","","","","","","","","","","","","","","","","","","","","","","","","","","","","","","FALSE","",""
"Grayson","Grayson","","AL","Alabama","01133","Winston","01133","Winston","34.2804","-87.3195","","","18.1","point","FALSE","FALSE","FALSE","FALSE","America/Chicago","4","35572","1840027611","","","","","","","","","","","","","","","","","","","","","","","","","","","","","","","","","","","","","","","","","","","","","","","","","","","","","","","","","","","","","","","","","","FALSE","",""
"Green Bay","Green Bay","","AL","Alabama","01039","Covington","01039","Covington","31.1780","-86.2894","","","0.3","point","FALSE","FALSE","FALSE","FALSE","America/Chicago","5","36467","1840043373","","","","","","","","","","","","","","","","","","","","","","","","","","","","","","","","","","","","","","","","","","","","","","","","","","","","","","","","","","","","","","","","","","FALSE","",""
"Pumpkin Center","Pumpkin Center","","MS","Mississippi","28145","Union","28145","Union","34.5315","-89.0345","","","50.6","point","FALSE","FALSE","FALSE","FALSE","America/Chicago","4","38652","1840075414","","","","","","","","","","","","","","","","","","","","","","","","","","","","","","","","","","","","","","","","","","","","","","","","","","","","","","","","","","","","","","","","46180","Tupelo, MS","FALSE","539","Tupelo-Corinth, MS"
"Sawbill Landing","Sawbill Landing","","MN","Minnesota","27075","Lake","27075","Lake","47.7152","-91.2679","","","0.0","point","FALSE","FALSE","FALSE","FALSE","America/Chicago","5","55607","1840072035","","","","","","","","","","","","","","","","","","","","","","","","","","","","","","","","","","","","","","","","","","","","","","","","","","","","","","","","","","","","","","","","20260","Duluth, MN-WI","TRUE","",""
"Blair","Blair","","MS","Mississippi","28081","Lee","28081","Lee","34.4512","-88.7370","","","23.2","point","FALSE","FALSE","FALSE","FALSE","America/Chicago","4","38849","1840073990","","","","","","","","","","","","","","","","","","","","","","","","","","","","","","","","","","","","","","","","","","","","","","","","","","","","","","","","","","","","","","","","46180","Tupelo, MS","FALSE","539","Tupelo-Corinth, MS"
"Blanton","Blanton","","MS","Mississippi","28125","Sharkey","28125","Sharkey","32.7487","-90.9307","","","2.1","point","FALSE","FALSE","FALSE","FALSE","America/Chicago","5","39159","1840073991","","","","","","","","","","","","","","","","","","","","","","","","","","","","","","","","","","","","","","","","","","","","","","","","","","","","","","","","","","","","","","","","","","FALSE","",""
"Schley","Schley","","MN","Minnesota","27021","Cass","27021","Cass","47.3688","-94.4161","","","0.0","point","FALSE","FALSE","FALSE","FALSE","America/Chicago","5","56633","1840025884","","","","","","","","","","","","","","","","","","","","","","","","","","","","","","","","","","","","","","","","","","","","","","","","","","","","","","","","","","","","","","","","14660","Brainerd, MN","FALSE","",""
"Berry Glenn","Berry Glenn","","CA","California","06023","Humboldt","06023","Humboldt","41.3173","-124.0412","","","0.9","point","FALSE","FALSE","FALSE","FALSE","America/Los_Angeles","5","95555","1840045833","","","","","","","","","","","","","","","","","","","","","","","","","","","","","","","","","","","","","","","","","","","","","","","","","","","","","","","","","","","","","","","","21700","Eureka-Arcata, CA","FALSE","",""
"Woodrow","Woodrow","","SC","South Carolina","45061","Lee","45061","Lee","34.0949","-80.3779","","","70.9","point","FALSE","FALSE","FALSE","FALSE","America/New_York","4","29153","1840107762","","","","","","","","","","","","","","","","","","","","","","","","","","","","","","","","","","","","","","","","","","","","","","","","","","","","","","","","","","","","","","","","44940","Sumter, SC","TRUE","",""
"Bethpage","Bethpage","","MO","Missouri","29119","McDonald","29119","McDonald","36.6901","-94.2363","","","11.1","point","FALSE","FALSE","FALSE","FALSE","America/Chicago","4","64867","1840075562","","","","","","","","","","","","","","","","","","","","","","","","","","","","","","","","","","","","","","","","","","","","","","","","","","","","","","","","","","","","","","","","","","FALSE","",""
"Woods Crossroads","Woods Crossroads","","SC","South Carolina","45005","Allendale","45005","Allendale","32.9852","-81.3476","","","8.3","point","FALSE","FALSE","FALSE","FALSE","America/New_York","5","29810","1840107763","","","","","","","","","","","","","","","","","","","","","","","","","","","","","","","","","","","","","","","","","","","","","","","","","","","","","","","","","","","","","","","","12260","Augusta-Richmond County, GA-SC","TRUE","",""
"Turner","Turner","","MD","Maryland","24005","Baltimore","24005","Baltimore","39.2448","-76.5147","","","3269.5","point","FALSE","FALSE","FALSE","FALSE","America/New_York","4","21222","1840068059","","","","","","","","","","","","","","","","","","","","","","","","","","","","","","","","","","","","","","","","","","","","","","","","","","","","","","","","","","","","","","","","12580","Baltimore-Columbia-Towson, MD","TRUE","548","Washington-Baltimore-Arlington, DC-MD-VA-WV-PA"
"Stapleton","Stapleton","","CO","Colorado","08083","Montezuma","08083","Montezuma","37.4989","-108.4048","","","7.9","point","FALSE","FALSE","FALSE","FALSE","America/Denver","5","81323","1840043723","","","","","","","","","","","","","","","","","","","","","","","","","","","","","","","","","","","","","","","","","","","","","","","","","","","","","","","","","","","","","","","","","","FALSE","",""
"Old Mill","Old Mill","","VA","Virginia","51019","Bedford","51019","Bedford","37.3910","-79.5039","","","22.3","point","FALSE","FALSE","FALSE","FALSE","America/New_York","4","24523","1840118669","","","","","","","","","","","","","","","","","","","","","","","","","","","","","","","","","","","","","","","","","","","","","","","","","","","","","","","","","","","","","","","","31340","Lynchburg, VA","TRUE","",""
"Pachappa","Pachappa","","CA","California","06065","Riverside","06065","Riverside","33.9467","-117.3850","","","2354.7","point","FALSE","FALSE","FALSE","FALSE","America/Los_Angeles","4","92506","1840131213","","","","","","","","","","","","","","","","","","","","","","","","","","","","","","","","","","","","","","","","","","","","","","","","","","","","","","","","","","","","","","","","40140","Riverside-San Bernardino-Ontario, CA","TRUE","348","Los Angeles-Long Beach, CA"
"Pacer","Pacer","","CA","California","06083","Santa Barbara","06083","Santa Barbara","34.9353","-120.4899","","","16.3","point","FALSE","FALSE","FALSE","FALSE","America/Los_Angeles","4","93458","1840131212","","","","","","","","","","","","","","","","","","","","","","","","","","","","","","","","","","","","","","","","","","","","","","","","","","","","","","","","","","","","","","","","42020","San Luis Obispo-Paso Robles, CA","TRUE","",""
"Oxnard Beach","Oxnard Beach","","CA","California","06111","Ventura","06111","Ventura","34.1633","-119.2279","","","2225.8","point","FALSE","FALSE","FALSE","FALSE","America/Los_Angeles","4","93035","1840131211","","","","","","","","","","","","","","","","","","","","","","","","","","","","","","","","","","","","","","","","","","","","","","","","","","","","","","","","","","","","","","","","37100","Oxnard-Thousand Oaks-Ventura, CA","TRUE","348","Los Angeles-Long Beach, CA"
"Ortonville","Ortonville","","CA","California","06111","Ventura","06111","Ventura","34.3214","-119.2915","","","269.2","point","FALSE","FALSE","FALSE","FALSE","America/Los_Angeles","4","93001","1840131210","","","","","","","","","","","","","","","","","","","","","","","","","","","","","","","","","","","","","","","","","","","","","","","","","","","","","","","","","","","","","","","","37100","Oxnard-Thousand Oaks-Ventura, CA","TRUE","348","Los Angeles-Long Beach, CA"
"Pullontown","Pullontown","","VA","Virginia","51169","Scott","51169","Scott","36.6223","-82.3132","","","36.0","point","FALSE","FALSE","FALSE","FALSE","America/New_York","4","24202","1840115701","","","","","","","","","","","","","","","","","","","","","","","","","","","","","","","","","","","","","","","","","","","","","","","","","","","","","","","","","","","","","","","","28700","Kingsport-Bristol, TN-VA","TRUE","304","Johnson City-Kingsport-Bristol, TN-VA"
"Rockdale","Rockdale","","TN","Tennessee","47119","Maury","47119","Maury","35.4712","-87.2564","","","35.5","point","FALSE","FALSE","FALSE","FALSE","America/Chicago","4","38474","1840110492","","","","","","","","","","","","","","","","","","","","","","","","","","","","","","","","","","","","","","","","","","","","","","","","","","","","","","","","","","","","","","","","34980","Nashville-Davidson--Murfreesboro--Franklin, TN","TRUE","400","Nashville-Davidson--Murfreesboro, TN"
"Verona Park","Verona Park","","ME","Maine","23009","Hancock","23009","Hancock","44.5526","-68.8011","","","51.6","point","FALSE","FALSE","FALSE","FALSE","America/New_York","4","04416","1840065497","","","","","","","","","","","","","","","","","","","","","","","","","","","","","","","","","","","","","","","","","","","","","","","","","","","","","","","","","","","","","","","","","","FALSE","",""
"Cedartown","Cedartown","","MD","Maryland","24047","Worcester","24047","Worcester","38.1960","-75.3035","","","17.7","point","FALSE","FALSE","FALSE","FALSE","America/New_York","4","21863","1840067052","","","","","","","","","","","","","","","","","","","","","","","","","","","","","","","","","","","","","","","","","","","","","","","","","","","","","","","","","","","","","","","","41540","Salisbury, MD-DE","TRUE","480","Salisbury-Cambridge, MD-DE"
"Wainville","Wainville","","WV","West Virginia","54101","Webster","54101","Webster","38.4915","-80.5729","","","24.8","point","FALSE","FALSE","FALSE","FALSE","America/New_York","4","26203","1840121902","","","","","","","","","","","","","","","","","","","","","","","","","","","","","","","","","","","","","","","","","","","","","","","","","","","","","","","","","","","","","","","","","","FALSE","",""
"Cedar Cliff","Cedar Cliff","","MD","Maryland","24001","Allegany","24001","Allegany","39.6084","-78.8072","","","740.6","point","FALSE","FALSE","FALSE","FALSE","America/New_York","4","21502","1840067047","","","","","","","","","","","","","","","","","","","","","","","","","","","","","","","","","","","","","","","","","","","","","","","","","","","","","","","","","","","","","","","","19060","Cumberland, MD-WV","TRUE","",""
"Cedar Beach","Cedar Beach","","MD","Maryland","24005","Baltimore","24005","Baltimore","39.2826","-76.4172","","","260.5","point","FALSE","FALSE","FALSE","FALSE","America/New_York","4","21221","1840067046","","","","","","","","","","","","","","","","","","","","","","","","","","","","","","","","","","","","","","","","","","","","","","","","","","","","","","","","","","","","","","","","12580","Baltimore-Columbia-Towson, MD","TRUE","548","Washington-Baltimore-Arlington, DC-MD-VA-WV-PA"
"Cedar Grove","Cedar Grove","","MD","Maryland","24043","Washington","24043","Washington","39.5318","-77.8222","","","92.6","point","FALSE","FALSE","FALSE","FALSE","America/New_York","4","21795","1840152343","","","","","","","","","","","","","","","","","","","","","","","","","","","","","","","","","","","","","","","","","","","","","","","","","","","","","","","","","","","","","","","","25180","Hagerstown-Martinsburg, MD-WV","TRUE","548","Washington-Baltimore-Arlington, DC-MD-VA-WV-PA"
"Cedar Hill","Cedar Hill","","MD","Maryland","24015","Cecil","24015","Cecil","39.6751","-75.8919","","","174.0","point","FALSE","FALSE","FALSE","FALSE","America/New_York","4","21921","1840067050","","","","","","","","","","","","","","","","","","","","","","","","","","","","","","","","","","","","","","","","","","","","","","","","","","","","","","","","","","","","","","","","37980","Philadelphia-Camden-Wilmington, PA-NJ-DE-MD","TRUE","428","Philadelphia-Reading-Camden, PA-NJ-DE-MD"
"Trimble","Trimble","","IL","Illinois","17033","Crawford","17033","Crawford","39.0634","-87.6845","","","65.1","point","FALSE","FALSE","FALSE","FALSE","America/Chicago","4","62454","1840029831","","","","","","","","","","","","","","","","","","","","","","","","","","","","","","","","","","","","","","","","","","","","","","","","","","","","","","","","","","","","","","","","","","FALSE","",""
"Deardorffs Mill","Deardorffs Mill","","PA","Pennsylvania","42001","Adams","42001","Adams","40.0254","-77.0808","","","10.4","point","FALSE","FALSE","FALSE","FALSE","America/New_York","4","17372","1840102733","","","","","","","","","","","","","","","","","","","","","","","","","","","","","","","","","","","","","","","","","","","","","","","","","","","","","","","","","","","","","","","","49620","York-Hanover, PA","TRUE","276","Harrisburg-York-Lebanon, PA"
"Roy Summit","Roy Summit","","ID","Idaho","16071","Oneida","16071","Oneida","42.3174","-112.8022","","","0.2","point","FALSE","FALSE","FALSE","FALSE","America/Boise","5","83243","1840050878","","","","","","","","","","","","","","","","","","","","","","","","","","","","","","","","","","","","","","","","","","","","","","","","","","","","","","","","","","","","","","","","38540","Pocatello, ID","TRUE","",""
"Alpha","Alpha","","NV","Nevada","32011","Eureka","32011","Eureka","40.0102","-116.1931","","","3.1","point","FALSE","FALSE","FALSE","FALSE","America/Los_Angeles","5","89316","1840079180","","","","","","","","","","","","","","","","","","","","","","","","","","","","","","","","","","","","","","","","","","","","","","","","","","","","","","","","","","","","","","","","21220","Elko, NV","FALSE","",""
"Roseworth","Roseworth","","ID","Idaho","16083","Twin Falls","16083","Twin Falls","42.3669","-114.9223","","","0.1","point","FALSE","FALSE","FALSE","FALSE","America/Boise","5","83321","1840024563","","","","","","","","","","","","","","","","","","","","","","","","","","","","","","","","","","","","","","","","","","","","","","","","","","","","","","","","","","","","","","","","46300","Twin Falls, ID","TRUE","",""
"Rose Lake","Rose Lake","","ID","Idaho","16055","Kootenai","16055","Kootenai","47.5388","-116.4718","","","32.8","point","FALSE","FALSE","FALSE","FALSE","America/Los_Angeles","4","83810","1840029707","","","","","","","","","","","","","","","","","","","","","","","","","","","","","","","","","","","","","","","","","","","","","","","","","","","","","","","","","","","","","","","","17660","Coeur d'Alene, ID","TRUE","518","Spokane-Spokane Valley-Coeur d'Alene, WA-ID"
"Craige","Craige","","WA","Washington","53003","Asotin","53003","Asotin","46.1354","-117.0238","","","1.0","point","FALSE","FALSE","FALSE","FALSE","America/Los_Angeles","5","99402","1840120406","","","","","","","","","","","","","","","","","","","","","","","","","","","","","","","","","","","","","","","","","","","","","","","","","","","","","","","","","","","","","","","","30300","Lewiston, ID-WA","TRUE","",""
"Rudo","Rudo","","ID","Idaho","16035","Clearwater","16035","Clearwater","46.4891","-116.0124","","","1.2","point","FALSE","FALSE","FALSE","FALSE","America/Los_Angeles","5","83544","1840050879","","","","","","","","","","","","","","","","","","","","","","","","","","","","","","","","","","","","","","","","","","","","","","","","","","","","","","","","","","","","","","","","","","FALSE","",""
"Riterville","Riterville","","PA","Pennsylvania","42083","McKean","42083","McKean","41.7695","-78.6620","","","14.7","point","FALSE","FALSE","FALSE","FALSE","America/New_York","4","16738","1840104359","","","","","","","","","","","","","","","","","","","","","","","","","","","","","","","","","","","","","","","","","","","","","","","","","","","","","","","","","","","","","","","","14620","Bradford, PA","FALSE","",""
"Phiferes","Phiferes","","TN","Tennessee","47175","Van Buren","47175","Van Buren","35.6653","-85.4458","","","9.2","point","FALSE","FALSE","FALSE","FALSE","America/Chicago","5","38585","1840112096","","","","","","","","","","","","","","","","","","","","","","","","","","","","","","","","","","","","","","","","","","","","","","","","","","","","","","","","","","","","","","","","","","FALSE","",""
"Crystal","Crystal","","NV","Nevada","32023","Nye","32023","Nye","36.4916","-116.1675","","","56.3","point","FALSE","FALSE","FALSE","FALSE","America/Los_Angeles","4","89060","1840132124","","","","","","","","","","","","","","","","","","","","","","","","","","","","","","","","","","","","","","","","","","","","","","","","","","","","","","","","","","","","","","","","37220","Pahrump, NV","FALSE","332","Las Vegas-Henderson, NV"
"Alexanders Village","Alexanders Village","","AK","Alaska","02290","Yukon-Koyukuk","02290","Yukon-Koyukuk","66.7883","-145.4369","","","0.0","point","FALSE","FALSE","FALSE","FALSE","America/Anchorage","5","99740","1840114153","","","","","","","","","","","","","","","","","","","","","","","","","","","","","","","","","","","","","","","","","","","","","","","","","","","","","","","","","","","","","","","","","","FALSE","",""
"Drummonds","Drummonds","","TN","Tennessee","47167","Tipton","47167","Tipton","35.4634","-89.9101","","","47.3","point","FALSE","FALSE","FALSE","FALSE","America/Chicago","4","38023","1840109600","","","","","","","","","","","","","","","","","","","","","","","","","","","","","","","","","","","","","","","","","","","","","","","","","","","","","","","","","","","","","","","","32820","Memphis, TN-MS-AR","TRUE","368","Memphis-Forrest City, TN-MS-AR"
"Earlton","Earlton","","NY","New York","36039","Greene","36039","Greene","42.3556","-73.9007","","","73.8","point","FALSE","FALSE","FALSE","FALSE","America/New_York","4","12042","1840083552","","","","","","","","","","","","","","","","","","","","","","","","","","","","","","","","","","","","","","","","","","","","","","","","","","","","","","","","","","","","","","","","26460","Hudson, NY","FALSE","104","Albany-Schenectady, NY"
"Graniteville","Graniteville","","MO","Missouri","29093","Iron","29093","Iron","37.6503","-90.6798","","","20.9","point","FALSE","FALSE","FALSE","FALSE","America/Chicago","4","63650","1840075757","","","","","","","","","","","","","","","","","","","","","","","","","","","","","","","","","","","","","","","","","","","","","","","","","","","","","","","","","","","","","","","","","","FALSE","",""
"Jefferson","Jefferson","","TN","Tennessee","47041","DeKalb","47041","DeKalb","35.8945","-85.7111","","","14.6","point","FALSE","FALSE","FALSE","FALSE","America/Chicago","4","37166","1840111757","","","","","","","","","","","","","","","","","","","","","","","","","","","","","","","","","","","","","","","","","","","","","","","","","","","","","","","","","","","","","","","","","","FALSE","",""
"Atwood","Atwood","","NY","New York","36111","Ulster","36111","Ulster","41.8929","-74.1599","","","31.7","point","FALSE","FALSE","FALSE","FALSE","America/New_York","4","12484","1840082926","","","","","","","","","","","","","","","","","","","","","","","","","","","","","","","","","","","","","","","","","","","","","","","","","","","","","","","","","","","","","","","","28740","Kingston, NY","TRUE","408","New York-Newark, NY-NJ-CT-PA"
"Nashville","Nashville","","NE","Nebraska","31177","Washington","31177","Washington","41.4064","-95.9967","","","50.4","point","FALSE","FALSE","FALSE","FALSE","America/Chicago","4","68152","1840078544","","","","","","","","","","","","","","","","","","","","","","","","","","","","","","","","","","","","","","","","","","","","","","","","","","","","","","","","","","","","","","","","36540","Omaha-Council Bluffs, NE-IA","TRUE","420","Omaha-Council Bluffs-Fremont, NE-IA"
"Dillon","Dillon","","VA","Virginia","51023","Botetourt","51023","Botetourt","37.5396","-79.6378","","","1.6","point","FALSE","FALSE","FALSE","FALSE","America/New_York","5","24066","1840116939","","","","","","","","","","","","","","","","","","","","","","","","","","","","","","","","","","","","","","","","","","","","","","","","","","","","","","","","","","","","","","","","40220","Roanoke, VA","TRUE","",""
"Devonshire Gardens","Devonshire Gardens","","VA","Virginia","51059","Fairfax","51059","Fairfax","38.8709","-77.1875","","","2453.3","point","FALSE","FALSE","FALSE","FALSE","America/New_York","4","22042","1840116938","","","","","","","","","","","","","","","","","","","","","","","","","","","","","","","","","","","","","","","","","","","","","","","","","","","","","","","","","","","","","","","","47900","Washington-Arlington-Alexandria, DC-VA-MD-WV","TRUE","548","Washington-Baltimore-Arlington, DC-MD-VA-WV-PA"
"Derby","Derby","","VA","Virginia","51195","Wise","51195","Wise","36.9357","-82.8263","","","45.8","point","FALSE","FALSE","FALSE","FALSE","America/New_York","4","24216","1840116937","","","","","","","","","","","","","","","","","","","","","","","","","","","","","","","","","","","","","","","","","","","","","","","","","","","","","","","","","","","","","","","","13720","Big Stone Gap, VA","FALSE","",""
"Denmark","Denmark","","VA","Virginia","51163","Rockbridge","51163","Rockbridge","37.8674","-79.5495","","","14.9","point","FALSE","FALSE","FALSE","FALSE","America/New_York","4","24450","1840116936","","","","","","","","","","","","","","","","","","","","","","","","","","","","","","","","","","","","","","","","","","","","","","","","","","","","","","","","","","","","","","","","","","FALSE","",""
"Bartolo","Bartolo","","CA","California","06037","Los Angeles","06037","Los Angeles","34.0064","-118.0623","","","1851.7","point","FALSE","FALSE","FALSE","FALSE","America/Los_Angeles","4","90660","1840129845","","","","","","","","","","","","","","","","","","","","","","","","","","","","","","","","","","","","","","","","","","","","","","","","","","","","","","","","","","","","","","","","31080","Los Angeles-Long Beach-Anaheim, CA","TRUE","348","Los Angeles-Long Beach, CA"
"Grant City","Grant City","","IN","Indiana","18065","Henry","18065","Henry","39.8664","-85.5425","","","17.1","point","FALSE","FALSE","FALSE","FALSE","America/Indiana/Indianapolis","4","47384","1840054799","","","","","","","","","","","","","","","","","","","","","","","","","","","","","","","","","","","","","","","","","","","","","","","","","","","","","","","","","","","","","","","","35220","New Castle, IN","FALSE","294","Indianapolis-Carmel-Muncie, IN"
"Hobson","Hobson","","KY","Kentucky","21217","Taylor","21217","Taylor","37.4256","-85.3689","","","21.1","point","FALSE","FALSE","FALSE","FALSE","America/New_York","4","42718","1840030475","","","","","","","","","","","","","","","","","","","","","","","","","","","","","","","","","","","","","","","","","","","","","","","","","","","","","","","","","","","","","","","","15820","Campbellsville, KY","FALSE","",""
"Kidd","Kidd","","IL","Illinois","17133","Monroe","17133","Monroe","38.1173","-90.1729","","","0.3","point","FALSE","FALSE","FALSE","FALSE","America/Chicago","5","62277","1840051345","","","","","","","","","","","","","","","","","","","","","","","","","","","","","","","","","","","","","","","","","","","","","","","","","","","","","","","","","","","","","","","","41180","St. Louis, MO-IL","TRUE","476","St. Louis-St. Charles-Farmington, MO-IL"
"Readburn","Readburn","","NY","New York","36025","Delaware","36025","Delaware","42.0112","-75.1741","","","1.0","point","FALSE","FALSE","FALSE","FALSE","America/New_York","5","13783","1840086693","","","","","","","","","","","","","","","","","","","","","","","","","","","","","","","","","","","","","","","","","","","","","","","","","","","","","","","","","","","","","","","","","","FALSE","",""
"Yaggy","Yaggy","","KS","Kansas","20155","Reno","20155","Reno","38.0970","-98.0089","","","37.0","point","FALSE","FALSE","FALSE","FALSE","America/Chicago","4","67502","1840059673","","","","","","","","","","","","","","","","","","","","","","","","","","","","","","","","","","","","","","","","","","","","","","","","","","","","","","","","","","","","","","","","26740","Hutchinson, KS","FALSE","",""
"Bosse","Bosse","","KS","Kansas","20083","Hodgeman","20083","Hodgeman","38.0870","-99.8337","","","2.2","point","FALSE","FALSE","FALSE","FALSE","America/Chicago","5","67854","1840059671","","","","","","","","","","","","","","","","","","","","","","","","","","","","","","","","","","","","","","","","","","","","","","","","","","","","","","","","","","","","","","","","","","FALSE","",""
"Orwell","Orwell","","KS","Kansas","20083","Hodgeman","20083","Hodgeman","38.0156","-99.7157","","","0.0","point","FALSE","FALSE","FALSE","FALSE","America/Chicago","5","67849","1840059672","","","","","","","","","","","","","","","","","","","","","","","","","","","","","","","","","","","","","","","","","","","","","","","","","","","","","","","","","","","","","","","","","","FALSE","",""
"Hamburg","Hamburg","","KS","Kansas","20145","Pawnee","20145","Pawnee","38.1256","-99.1704","","","2.0","point","FALSE","FALSE","FALSE","FALSE","America/Chicago","5","67529","1840059669","","","","","","","","","","","","","","","","","","","","","","","","","","","","","","","","","","","","","","","","","","","","","","","","","","","","","","","","","","","","","","","","","","FALSE","",""
"Ray","Ray","","KS","Kansas","20145","Pawnee","20145","Pawnee","38.1745","-98.9676","","","0.5","point","FALSE","FALSE","FALSE","FALSE","America/Chicago","5","67550","1840059670","","","","","","","","","","","","","","","","","","","","","","","","","","","","","","","","","","","","","","","","","","","","","","","","","","","","","","","","","","","","","","","","","","FALSE","",""
"Bert Wettar","Bert Wettar","","KS","Kansas","20145","Pawnee","20145","Pawnee","38.1914","-99.3684","","","0.5","point","FALSE","FALSE","FALSE","FALSE","America/Chicago","5","67574","1840059667","","","","","","","","","","","","","","","","","","","","","","","","","","","","","","","","","","","","","","","","","","","","","","","","","","","","","","","","","","","","","","","","","","FALSE","",""
"Frizell","Frizell","","KS","Kansas","20145","Pawnee","20145","Pawnee","38.1661","-99.2143","","","1.0","point","FALSE","FALSE","FALSE","FALSE","America/Chicago","5","67550","1840059668","","","","","","","","","","","","","","","","","","","","","","","","","","","","","","","","","","","","","","","","","","","","","","","","","","","","","","","","","","","","","","","","","","FALSE","",""
"Shoulderbone","Shoulderbone","","GA","Georgia","13141","Hancock","13141","Hancock","33.3396","-83.0799","","","1.9","point","FALSE","FALSE","FALSE","FALSE","America/New_York","5","30678","1840048107","","","","","","","","","","","","","","","","","","","","","","","","","","","","","","","","","","","","","","","","","","","","","","","","","","","","","","","","","","","","","","","","33300","Milledgeville, GA","FALSE","",""
"Powell Valley","Powell Valley","","KY","Kentucky","21197","Powell","21197","Powell","37.8651","-83.9477","","","67.4","point","FALSE","FALSE","FALSE","FALSE","America/New_York","4","40312","1840062984","","","","","","","","","","","","","","","","","","","","","","","","","","","","","","","","","","","","","","","","","","","","","","","","","","","","","","","","","","","","","","","","40080","Richmond-Berea, KY","FALSE","336","Lexington-Fayette--Richmond--Frankfort, KY"
"Kimberley","Kimberley","","AR","Arkansas","05109","Pike","05109","Pike","34.0437","-93.6891","","","75.4","point","FALSE","FALSE","FALSE","FALSE","America/Chicago","4","71958","1840039478","","","","","","","","","","","","","","","","","","","","","","","","","","","","","","","","","","","","","","","","","","","","","","","","","","","","","","","","","","","","","","","","","","FALSE","",""
"Kimball","Kimball","","AR","Arkansas","05003","Ashley","05003","Ashley","33.0262","-91.6096","","","0.0","point","FALSE","FALSE","FALSE","FALSE","America/Chicago","5","71676","1840039477","","","","","","","","","","","","","","","","","","","","","","","","","","","","","","","","","","","","","","","","","","","","","","","","","","","","","","","","","","","","","","","","","","FALSE","",""
"Kenyon","Kenyon","","AR","Arkansas","05067","Jackson","05067","Jackson","35.7923","-91.2235","","","2.6","point","FALSE","FALSE","FALSE","FALSE","America/Chicago","5","72473","1840039476","","","","","","","","","","","","","","","","","","","","","","","","","","","","","","","","","","","","","","","","","","","","","","","","","","","","","","","","","","","","","","","","12900","Batesville, AR","FALSE","",""
"Kent","Kent","","AR","Arkansas","05103","Ouachita","05103","Ouachita","33.6257","-92.8132","","","23.7","point","FALSE","FALSE","FALSE","FALSE","America/Chicago","4","71701","1840027748","","","","","","","","","","","","","","","","","","","","","","","","","","","","","","","","","","","","","","","","","","","","","","","","","","","","","","","","","","","","","","","","15780","Camden, AR","FALSE","",""
"Kenova","Kenova","","AR","Arkansas","05139","Union","05139","Union","33.3573","-92.6974","","","17.7","point","FALSE","FALSE","FALSE","FALSE","America/Chicago","4","71762","1840039475","","","","","","","","","","","","","","","","","","","","","","","","","","","","","","","","","","","","","","","","","","","","","","","","","","","","","","","","","","","","","","","","15780","Camden, AR","FALSE","",""
"Swamp Run","Swamp Run","","WV","West Virginia","54097","Upshur","54097","Upshur","39.0245","-80.0748","","","22.1","point","FALSE","FALSE","FALSE","FALSE","America/New_York","4","26201","1840131521","","","","","","","","","","","","","","","","","","","","","","","","","","","","","","","","","","","","","","","","","","","","","","","","","","","","","","","","","","","","","","","","21180","Elkins, WV","FALSE","",""
"Westbury South","Westbury South","","NY","New York","36059","Nassau","36059","Nassau","40.7523","-73.5618","","","1642.4","point","FALSE","FALSE","FALSE","FALSE","America/New_York","4","11590","1840085897","","","","","","","","","","","","","","","","","","","","","","","","","","","","","","","","","","","","","","","","","","","","","","","","","","","","","","","","","","","","","","","","35620","New York-Newark-Jersey City, NY-NJ-PA","TRUE","408","New York-Newark, NY-NJ-CT-PA"
"Cuatro Caminos","Cuatro Caminos","","PR","Puerto Rico","72023","Cabo Rojo","72023","Cabo Rojo","18.0461","-67.1477","","","835.0","point","FALSE","FALSE","FALSE","FALSE","America/Puerto_Rico","4","00623","1630126288","","","","","","","","","","","","","","","","","","","","","","","","","","","","","","","","","","","","","","","","","","","","","","","","","","","","","","","","","","","","","","","","41900","San Germán, PR","TRUE","364","Mayagüez-San Germán, PR"
"Green Briar","Green Briar","","PA","Pennsylvania","42065","Jefferson","42065","Jefferson","41.3215","-78.9278","","","2.5","point","FALSE","FALSE","FALSE","FALSE","America/New_York","5","15853","1840104316","","","","","","","","","","","","","","","","","","","","","","","","","","","","","","","","","","","","","","","","","","","","","","","","","","","","","","","","","","","","","","","","41260","St. Marys, PA","FALSE","",""
"Alabaster","Alabaster","","MI","Michigan","26069","Iosco","26069","Iosco","44.1864","-83.5580","","","4.6","point","FALSE","FALSE","FALSE","FALSE","America/Detroit","5","48763","1840031559","","","","","","","","","","","","","","","","","","","","","","","","","","","","","","","","","","","","","","","","","","","","","","","","","","","","","","","","","","","","","","","","","","FALSE","",""
"Greendale","Greendale","","PA","Pennsylvania","42083","McKean","42083","McKean","41.6642","-78.7811","","","58.9","point","FALSE","FALSE","FALSE","FALSE","America/New_York","4","16735","1840152349","","","","","","","","","","","","","","","","","","","","","","","","","","","","","","","","","","","","","","","","","","","","","","","","","","","","","","","","","","","","","","","","14620","Bradford, PA","FALSE","",""
"Wildcat","Wildcat","","CO","Colorado","08123","Weld","08123","Weld","40.2591","-104.8847","","","7.3","point","FALSE","FALSE","FALSE","FALSE","America/Denver","5","80651","1840043772","","","","","","","","","","","","","","","","","","","","","","","","","","","","","","","","","","","","","","","","","","","","","","","","","","","","","","","","","","","","","","","","24540","Greeley, CO","TRUE","216","Denver-Aurora, CO"
"Alamo","Alamo","","MI","Michigan","26077","Kalamazoo","26077","Kalamazoo","42.3753","-85.7078","","","38.6","point","FALSE","FALSE","FALSE","FALSE","America/Detroit","4","49009","1840070437","","","","","","","","","","","","","","","","","","","","","","","","","","","","","","","","","","","","","","","","","","","","","","","","","","","","","","","","","","","","","","","","28020","Kalamazoo-Portage, MI","TRUE","310","Kalamazoo-Battle Creek-Portage, MI"
"Coldbrook","Coldbrook","","PA","Pennsylvania","42051","Fayette","42051","Fayette","40.0409","-79.5761","","","399.5","point","FALSE","FALSE","FALSE","FALSE","America/New_York","4","15425","1840098870","","","","","","","","","","","","","","","","","","","","","","","","","","","","","","","","","","","","","","","","","","","","","","","","","","","","","","","","","","","","","","","","38300","Pittsburgh, PA","TRUE","430","Pittsburgh-New Castle-Weirton, PA-OH-WV"
"The Meadows","The Meadows","","VA","Virginia","51003","Albemarle","51003","Albemarle","38.0549","-78.7017","","","56.6","point","FALSE","FALSE","FALSE","FALSE","America/New_York","4","22932","1840131462","","","","","","","","","","","","","","","","","","","","","","","","","","","","","","","","","","","","","","","","","","","","","","","","","","","","","","","","","","","","","","","","16820","Charlottesville, VA","TRUE","",""
"Earls Island","Earls Island","","OH","Ohio","39149","Shelby","39149","Shelby","40.3700","-84.3577","","","64.1","point","FALSE","FALSE","FALSE","FALSE","America/New_York","4","45865","1840092564","","","","","","","","","","","","","","","","","","","","","","","","","","","","","","","","","","","","","","","","","","","","","","","","","","","","","","","","","","","","","","","","43380","Sidney, OH","FALSE","212","Dayton-Springfield-Kettering, OH"
"East Bass Lake","East Bass Lake","","OH","Ohio","39055","Geauga","39055","Geauga","41.5917","-81.1773","","","45.7","point","FALSE","FALSE","FALSE","FALSE","America/New_York","4","44024","1840092565","","","","","","","","","","","","","","","","","","","","","","","","","","","","","","","","","","","","","","","","","","","","","","","","","","","","","","","","","","","","","","","","17460","Cleveland-Elyria, OH","TRUE","184","Cleveland-Akron-Canton, OH"
"Durant","Durant","","OH","Ohio","39115","Morgan","39115","Morgan","39.7503","-81.9107","","","8.2","point","FALSE","FALSE","FALSE","FALSE","America/New_York","5","43756","1840092561","","","","","","","","","","","","","","","","","","","","","","","","","","","","","","","","","","","","","","","","","","","","","","","","","","","","","","","","","","","","","","","","","","FALSE","",""
"North Thurston","North Thurston","","NY","New York","36101","Steuben","36101","Steuben","42.2676","-77.2805","","","22.0","point","FALSE","FALSE","FALSE","FALSE","America/New_York","4","14879","1840086596","","","","","","","","","","","","","","","","","","","","","","","","","","","","","","","","","","","","","","","","","","","","","","","","","","","","","","","","","","","","","","","","18500","Corning, NY","FALSE","236","Elmira-Corning, NY"
"North Osceola","North Osceola","","NY","New York","36049","Lewis","36049","Lewis","43.5709","-75.7124","","","0.7","point","FALSE","FALSE","FALSE","FALSE","America/New_York","5","13437","1840086591","","","","","","","","","","","","","","","","","","","","","","","","","","","","","","","","","","","","","","","","","","","","","","","","","","","","","","","","","","","","","","","","45060","Syracuse, NY","TRUE","532","Syracuse-Auburn, NY"
"Vine","Vine","","TN","Tennessee","47189","Wilson","47189","Wilson","36.0312","-86.3578","","","40.9","point","FALSE","FALSE","FALSE","FALSE","America/Chicago","4","37090","1840110627","","","","","","","","","","","","","","","","","","","","","","","","","","","","","","","","","","","","","","","","","","","","","","","","","","","","","","","","","","","","","","","","34980","Nashville-Davidson--Murfreesboro--Franklin, TN","TRUE","400","Nashville-Davidson--Murfreesboro, TN"
"New Caledonia","New Caledonia","","AR","Arkansas","05139","Union","05139","Union","33.0551","-92.6677","","","2.8","point","FALSE","FALSE","FALSE","FALSE","America/Chicago","5","71749","1840039939","","","","","","","","","","","","","","","","","","","","","","","","","","","","","","","","","","","","","","","","","","","","","","","","","","","","","","","","","","","","","","","","20980","El Dorado, AR","FALSE","",""
"Portersville","Portersville","","OH","Ohio","39127","Perry","39127","Perry","39.6748","-82.0310","","","40.0","point","FALSE","FALSE","FALSE","FALSE","America/New_York","4","43730","1840094897","","","","","","","","","","","","","","","","","","","","","","","","","","","","","","","","","","","","","","","","","","","","","","","","","","","","","","","","","","","","","","","","18140","Columbus, OH","TRUE","198","Columbus-Marion-Zanesville, OH"
"West Epping","West Epping","","NH","New Hampshire","33015","Rockingham","33015","Rockingham","43.0373","-71.1226","","","319.3","point","FALSE","FALSE","FALSE","FALSE","America/New_York","4","03042","1840080112","","","","","","","","","","","","","","","","","","","","","","","","","","","","","","","","","","","","","","","","","","","","","","","","","","","","","","","","","","","","","","","","14460","Boston-Cambridge-Newton, MA-NH","TRUE","148","Boston-Worcester-Providence, MA-RI-NH-CT"
"Custer","Custer","","KY","Kentucky","21027","Breckinridge","21027","Breckinridge","37.7384","-86.2547","","","27.2","point","FALSE","FALSE","FALSE","FALSE","America/Chicago","4","40146","1840030426","","","","","","","","","","","","","","","","","","","","","","","","","","","","","","","","","","","","","","","","","","","","","","","","","","","","","","","","","","","","","","","","21060","Elizabethtown-Fort Knox, KY","TRUE","350","Louisville/Jefferson County--Elizabethtown--Bardstown, KY-IN"
"Rutter","Rutter","","NM","New Mexico","35013","Doña Ana","35013","Doña Ana","32.0215","-106.8750","","","0.1","point","FALSE","FALSE","FALSE","FALSE","America/Denver","5","88021","1840082794","","","","","","","","","","","","","","","","","","","","","","","","","","","","","","","","","","","","","","","","","","","","","","","","","","","","","","","","","","","","","","","","29740","Las Cruces, NM","TRUE","238","El Paso-Las Cruces, TX-NM"
"Quatama","Quatama","","OR","Oregon","41067","Washington","41067","Washington","45.5232","-122.8893","","","3398.9","point","FALSE","FALSE","FALSE","FALSE","America/Los_Angeles","4","97006","1840098205","","","","","","","","","","","","","","","","","","","","","","","","","","","","","","","","","","","","","","","","","","","","","","","","","","","","","","","","","","","","","","","","38900","Portland-Vancouver-Hillsboro, OR-WA","TRUE","440","Portland-Vancouver-Salem, OR-WA"
"Salinas","Salinas","","NM","New Mexico","35035","Otero","35035","Otero","33.2351","-106.0603","","","0.0","point","FALSE","FALSE","FALSE","FALSE","America/Denver","5","88352","1840082795","","","","","","","","","","","","","","","","","","","","","","","","","","","","","","","","","","","","","","","","","","","","","","","","","","","","","","","","","","","","","","","","10460","Alamogordo, NM","FALSE","",""
"Rottaken","Rottaken","","AR","Arkansas","05119","Pulaski","05119","Pulaski","34.5731","-92.2110","","","16.1","point","FALSE","FALSE","FALSE","FALSE","America/Chicago","4","72206","1840038758","","","","","","","","","","","","","","","","","","","","","","","","","","","","","","","","","","","","","","","","","","","","","","","","","","","","","","","","","","","","","","","","30780","Little Rock-North Little Rock-Conway, AR","TRUE","340","Little Rock-North Little Rock, AR"
"Pohick Estates","Pohick Estates","","VA","Virginia","51059","Fairfax","51059","Fairfax","38.7173","-77.2028","","","1557.9","point","FALSE","FALSE","FALSE","FALSE","America/New_York","4","22079","1840117780","","","","","","","","","","","","","","","","","","","","","","","","","","","","","","","","","","","","","","","","","","","","","","","","","","","","","","","","","","","","","","","","47900","Washington-Arlington-Alexandria, DC-VA-MD-WV","TRUE","548","Washington-Baltimore-Arlington, DC-MD-VA-WV-PA"
"North Rush","North Rush","","NY","New York","36055","Monroe","36055","Monroe","43.0034","-77.7056","","","55.3","point","FALSE","FALSE","FALSE","FALSE","America/New_York","4","14543","1840086593","","","","","","","","","","","","","","","","","","","","","","","","","","","","","","","","","","","","","","","","","","","","","","","","","","","","","","","","","","","","","","","","40380","Rochester, NY","TRUE","464","Rochester-Batavia-Seneca Falls, NY"
"Pohick","Pohick","","VA","Virginia","51059","Fairfax","51059","Fairfax","38.7101","-77.1966","","","2384.8","point","FALSE","FALSE","FALSE","FALSE","America/New_York","4","22079","1840037369","","","","","","","","","","","","","","","","","","","","","","","","","","","","","","","","","","","","","","","","","","","","","","","","","","","","","","","","","","","","","","","","47900","Washington-Arlington-Alexandria, DC-VA-MD-WV","TRUE","548","Washington-Baltimore-Arlington, DC-MD-VA-WV-PA"
"Cedarhaven","Cedarhaven","","MD","Maryland","24033","Prince George's","24033","Prince George's","38.5729","-76.6861","","","166.7","point","FALSE","FALSE","FALSE","FALSE","America/New_York","4","20608","1840068410","","","","","","","","","","","","","","","","","","","","","","","","","","","","","","","","","","","","","","","","","","","","","","","","","","","","","","","","","","","","","","","","47900","Washington-Arlington-Alexandria, DC-VA-MD-WV","TRUE","548","Washington-Baltimore-Arlington, DC-MD-VA-WV-PA"
"Del Mar Heights","Del Mar Heights","","CA","California","06073","San Diego","06073","San Diego","32.9484","-117.2609","","","2093.0","point","FALSE","FALSE","FALSE","FALSE","America/Los_Angeles","4","92014","1840129864","","","","","","","","","","","","","","","","","","","","","","","","","","","","","","","","","","","","","","","","","","","","","","","","","","","","","","","","","","","","","","","","41740","San Diego-Chula Vista-Carlsbad, CA","TRUE","",""
"Port Union","Port Union","","OH","Ohio","39017","Butler","39017","Butler","39.3328","-84.4633","","","1830.9","point","FALSE","FALSE","FALSE","FALSE","America/New_York","4","45011","1840034131","","","","","","","","","","","","","","","","","","","","","","","","","","","","","","","","","","","","","","","","","","","","","","","","","","","","","","","","","","","","","","","","17140","Cincinnati, OH-KY-IN","TRUE","178","Cincinnati-Wilmington-Maysville, OH-KY-IN"
"Devon","Devon","","CA","California","06083","Santa Barbara","06083","Santa Barbara","34.8419","-120.5193","","","9.1","point","FALSE","FALSE","FALSE","FALSE","America/Los_Angeles","5","93455","1840129866","","","","","","","","","","","","","","","","","","","","","","","","","","","","","","","","","","","","","","","","","","","","","","","","","","","","","","","","","","","","","","","","42200","Santa Maria-Santa Barbara, CA","TRUE","",""
"Sveadal","Sveadal","","CA","California","06085","Santa Clara","06085","Santa Clara","37.0836","-121.7891","","","6.7","point","FALSE","FALSE","FALSE","FALSE","America/Los_Angeles","5","95037","1840130749","","","","","","","","","","","","","","","","","","","","","","","","","","","","","","","","","","","","","","","","","","","","","","","","","","","","","","","","","","","","","","","","41940","San Jose-Sunnyvale-Santa Clara, CA","TRUE","488","San Jose-San Francisco-Oakland, CA"
"Reese","Reese","","UT","Utah","49057","Weber","49057","Weber","41.2502","-112.1524","","","51.2","point","FALSE","FALSE","FALSE","FALSE","America/Denver","4","84404","1840114347","","","","","","","","","","","","","","","","","","","","","","","","","","","","","","","","","","","","","","","","","","","","","","","","","","","","","","","","","","","","","","","","36260","Ogden-Clearfield, UT","TRUE","482","Salt Lake City-Provo-Orem, UT"
"Eurekaton","Eurekaton","","TN","Tennessee","47075","Haywood","47075","Haywood","35.4329","-89.2192","","","12.4","point","FALSE","FALSE","FALSE","FALSE","America/Chicago","4","38075","1840111540","","","","","","","","","","","","","","","","","","","","","","","","","","","","","","","","","","","","","","","","","","","","","","","","","","","","","","","","","","","","","","","","15140","Brownsville, TN","FALSE","297","Jackson-Brownsville, TN"
"Sweetland","Sweetland","","CA","California","06057","Nevada","06057","Nevada","39.3429","-121.1202","","","59.8","point","FALSE","FALSE","FALSE","FALSE","America/Los_Angeles","4","95959","1840130750","","","","","","","","","","","","","","","","","","","","","","","","","","","","","","","","","","","","","","","","","","","","","","","","","","","","","","","","","","","","","","","","46020","Truckee-Grass Valley, CA","FALSE","472","Sacramento-Roseville, CA"
"Swobe","Swobe","","CA","California","06093","Siskiyou","06093","Siskiyou","41.2768","-121.9144","","","0.0","point","FALSE","FALSE","FALSE","FALSE","America/Los_Angeles","5","96057","1840130751","","","","","","","","","","","","","","","","","","","","","","","","","","","","","","","","","","","","","","","","","","","","","","","","","","","","","","","","","","","","","","","","","","FALSE","",""
"Ephesus","Ephesus","","TN","Tennessee","47017","Carroll","47017","Carroll","36.1303","-88.2887","","","5.9","point","FALSE","FALSE","FALSE","FALSE","America/Chicago","5","38342","1840111534","","","","","","","","","","","","","","","","","","","","","","","","","","","","","","","","","","","","","","","","","","","","","","","","","","","","","","","","","","","","","","","","37540","Paris, TN","FALSE","",""
"Sycamore","Sycamore","","CA","California","06011","Colusa","06011","Colusa","39.1338","-121.9419","","","7.1","point","FALSE","FALSE","FALSE","FALSE","America/Los_Angeles","5","95912","1840130752","","","","","","","","","","","","","","","","","","","","","","","","","","","","","","","","","","","","","","","","","","","","","","","","","","","","","","","","","","","","","","","","49700","Yuba City, CA","TRUE","472","Sacramento-Roseville, CA"
"Sylvan Lodge","Sylvan Lodge","","CA","California","06109","Tuolumne","06109","Tuolumne","38.0841","-120.1571","","","32.2","point","FALSE","FALSE","FALSE","FALSE","America/Los_Angeles","4","95346","1840130753","","","","","","","","","","","","","","","","","","","","","","","","","","","","","","","","","","","","","","","","","","","","","","","","","","","","","","","","","","","","","","","","43760","Sonora, CA","FALSE","",""
"Estes Pond","Estes Pond","","TN","Tennessee","47095","Lake","47095","Lake","36.4331","-89.4490","","","0.1","point","FALSE","FALSE","FALSE","FALSE","America/Chicago","5","38079","1840111538","","","","","","","","","","","","","","","","","","","","","","","","","","","","","","","","","","","","","","","","","","","","","","","","","","","","","","","","","","","","","","","","46460","Union City, TN","FALSE","362","Martin-Union City, TN"
"Erasmus","Erasmus","","TN","Tennessee","47035","Cumberland","47035","Cumberland","35.8870","-85.1850","","","6.6","point","FALSE","FALSE","FALSE","FALSE","America/Chicago","5","38572","1840111537","","","","","","","","","","","","","","","","","","","","","","","","","","","","","","","","","","","","","","","","","","","","","","","","","","","","","","","","","","","","","","","","18900","Crossville, TN","FALSE","",""
"Epworth","Epworth","","TN","Tennessee","47187","Williamson","47187","Williamson","35.8737","-86.7917","","","42.5","point","FALSE","FALSE","FALSE","FALSE","America/Chicago","4","37064","1840111536","","","","","","","","","","","","","","","","","","","","","","","","","","","","","","","","","","","","","","","","","","","","","","","","","","","","","","","","","","","","","","","","34980","Nashville-Davidson--Murfreesboro--Franklin, TN","TRUE","400","Nashville-Davidson--Murfreesboro, TN"
"Epperson","Epperson","","TN","Tennessee","47123","Monroe","47123","Monroe","35.2576","-84.3374","","","54.3","point","FALSE","FALSE","FALSE","FALSE","America/New_York","4","37385","1840111535","","","","","","","","","","","","","","","","","","","","","","","","","","","","","","","","","","","","","","","","","","","","","","","","","","","","","","","","","","","","","","","","17420","Cleveland, TN","TRUE","174","Chattanooga-Cleveland-Dalton, TN-GA"
"Oatmeal","Oatmeal","","TX","Texas","48053","Burnet","48053","Burnet","30.6969","-98.0945","","","11.5","point","FALSE","FALSE","FALSE","FALSE","America/Chicago","4","78605","1840113798","","","","","","","","","","","","","","","","","","","","","","","","","","","","","","","","","","","","","","","","","","","","","","","","","","","","","","","","","","","","","","","","12420","Austin-Round Rock-Georgetown, TX","TRUE","",""
"Oaks","Oaks","","TX","Texas","48025","Bee","48025","Bee","28.6089","-98.0317","","","0.6","point","FALSE","FALSE","FALSE","FALSE","America/Chicago","5","78119","1840113797","","","","","","","","","","","","","","","","","","","","","","","","","","","","","","","","","","","","","","","","","","","","","","","","","","","","","","","","","","","","","","","","13300","Beeville, TX","FALSE","",""
"Ocee","Ocee","","TX","Texas","48309","McLennan","48309","McLennan","31.5560","-97.3556","","","13.1","point","FALSE","FALSE","FALSE","FALSE","America/Chicago","4","76638","1840113799","","","","","","","","","","","","","","","","","","","","","","","","","","","","","","","","","","","","","","","","","","","","","","","","","","","","","","","","","","","","","","","","47380","Waco, TX","TRUE","",""
"Ogg","Ogg","","TX","Texas","48381","Randall","48381","Randall","34.8353","-101.8902","","","0.7","point","FALSE","FALSE","FALSE","FALSE","America/Chicago","5","79042","1840033509","","","","","","","","","","","","","","","","","","","","","","","","","","","","","","","","","","","","","","","","","","","","","","","","","","","","","","","","","","","","","","","","11100","Amarillo, TX","TRUE","108","Amarillo-Pampa-Borger, TX"
"Skullbone","Skullbone","","TN","Tennessee","47053","Gibson","47053","Gibson","36.0840","-88.7612","","","27.8","point","FALSE","FALSE","FALSE","FALSE","America/Chicago","4","38316","1840110581","","","","","","","","","","","","","","","","","","","","","","","","","","","","","","","","","","","","","","","","","","","","","","","","","","","","","","","","","","","","","","","","27180","Jackson, TN","TRUE","297","Jackson-Brownsville, TN"
"Hosensock","Hosensock","","PA","Pennsylvania","42107","Schuylkill","42107","Schuylkill","40.8190","-76.0766","","","49.9","point","FALSE","FALSE","FALSE","FALSE","America/New_York","4","18214","1840099772","","","","","","","","","","","","","","","","","","","","","","","","","","","","","","","","","","","","","","","","","","","","","","","","","","","","","","","","","","","","","","","","39060","Pottsville, PA","FALSE","",""
"Black Bottom","Black Bottom","","AL","Alabama","01043","Cullman","01043","Cullman","33.9482","-86.8600","","","10.7","point","FALSE","FALSE","FALSE","FALSE","America/Chicago","4","35077","1840040852","","","","","","","","","","","","","","","","","","","","","","","","","","","","","","","","","","","","","","","","","","","","","","","","","","","","","","","","","","","","","","","","18980","Cullman, AL","FALSE","142","Birmingham-Hoover-Talladega, AL"
"Lustre","Lustre","","MT","Montana","30105","Valley","30105","Valley","48.3934","-105.8822","","","1.2","point","FALSE","FALSE","FALSE","FALSE","America/Denver","5","59225","1840032568","","","","","","","","","","","","","","","","","","","","","","","","","","","","","","","","","","","","","","","","","","","","","","","","","","","","","","","","","","","","","","","","","","FALSE","",""
"Burnt Fort","Burnt Fort","","GA","Georgia","13039","Camden","13039","Camden","30.9455","-81.8982","","","15.0","point","FALSE","FALSE","FALSE","FALSE","America/New_York","4","31568","1840049863","","","","","","","","","","","","","","","","","","","","","","","","","","","","","","","","","","","","","","","","","","","","","","","","","","","","","","","","","","","","","","","","41220","St. Marys, GA","FALSE","300","Jacksonville-St. Marys-Palatka, FL-GA"
"Burwell","Burwell","","GA","Georgia","13045","Carroll","13045","Carroll","33.5793","-85.2063","","","70.3","point","FALSE","FALSE","FALSE","FALSE","America/New_York","4","30117","1840049864","","","","","","","","","","","","","","","","","","","","","","","","","","","","","","","","","","","","","","","","","","","","","","","","","","","","","","","","","","","","","","","","12060","Atlanta-Sandy Springs-Alpharetta, GA","TRUE","122","Atlanta--Athens-Clarke County--Sandy Springs, GA-AL"
"Eakin","Eakin","","OR","Oregon","41055","Sherman","41055","Sherman","45.3004","-120.7612","","","0.4","point","FALSE","FALSE","FALSE","FALSE","America/Los_Angeles","5","97029","1840097626","","","","","","","","","","","","","","","","","","","","","","","","","","","","","","","","","","","","","","","","","","","","","","","","","","","","","","","","","","","","","","","","45520","The Dalles, OR","FALSE","",""
"Durkee","Durkee","","OR","Oregon","41001","Baker","41001","Baker","44.5821","-117.4646","","","13.6","point","FALSE","FALSE","FALSE","FALSE","America/Los_Angeles","4","97905","1840097625","","","","","","","","","","","","","","","","","","","","","","","","","","","","","","","","","","","","","","","","","","","","","","","","","","","","","","","","","","","","","","","","","","FALSE","",""
"Dunnean","Dunnean","","OR","Oregon","41025","Harney","41025","Harney","43.4321","-118.2619","","","0.0","point","FALSE","FALSE","FALSE","FALSE","America/Los_Angeles","5","97732","1840097623","","","","","","","","","","","","","","","","","","","","","","","","","","","","","","","","","","","","","","","","","","","","","","","","","","","","","","","","","","","","","","","","","","FALSE","",""
"Duck Pond","Duck Pond","","OR","Oregon","41045","Malheur","41045","Malheur","43.3496","-118.0052","","","0.0","point","FALSE","FALSE","FALSE","FALSE","America/Boise","5","97906","1840097622","","","","","","","","","","","","","","","","","","","","","","","","","","","","","","","","","","","","","","","","","","","","","","","","","","","","","","","","","","","","","","","","36620","Ontario, OR-ID","FALSE","147","Boise City-Mountain Home-Ontario, ID-OR"
"Downing","Downing","","OR","Oregon","41059","Umatilla","41059","Umatilla","45.8582","-118.4147","","","0.0","point","FALSE","FALSE","FALSE","FALSE","America/Los_Angeles","5","97886","1840097621","","","","","","","","","","","","","","","","","","","","","","","","","","","","","","","","","","","","","","","","","","","","","","","","","","","","","","","","","","","","","","","","25840","Hermiston-Pendleton, OR","FALSE","",""
"Dougren","Dougren","","OR","Oregon","41039","Lane","41039","Lane","43.9632","-122.8840","","","73.0","point","FALSE","FALSE","FALSE","FALSE","America/Los_Angeles","4","97455","1840097620","","","","","","","","","","","","","","","","","","","","","","","","","","","","","","","","","","","","","","","","","","","","","","","","","","","","","","","","","","","","","","","","21660","Eugene-Springfield, OR","TRUE","",""
"Welchland","Welchland","","TN","Tennessee","47175","Van Buren","47175","Van Buren","35.6478","-85.5166","","","6.7","point","FALSE","FALSE","FALSE","FALSE","America/Chicago","5","38585","1840109185","","","","","","","","","","","","","","","","","","","","","","","","","","","","","","","","","","","","","","","","","","","","","","","","","","","","","","","","","","","","","","","","","","FALSE","",""
"Arland","Arland","","WI","Wisconsin","55005","Barron","55005","Barron","45.3383","-92.0230","","","14.9","point","FALSE","FALSE","FALSE","FALSE","America/Chicago","4","54004","1840123497","","","","","","","","","","","","","","","","","","","","","","","","","","","","","","","","","","","","","","","","","","","","","","","","","","","","","","","","","","","","","","","","","","FALSE","",""
"Albert","Albert","","AR","Arkansas","05097","Montgomery","05097","Montgomery","34.3712","-93.8746","","","4.5","point","FALSE","FALSE","FALSE","FALSE","America/Chicago","5","71935","1840040034","","","","","","","","","","","","","","","","","","","","","","","","","","","","","","","","","","","","","","","","","","","","","","","","","","","","","","","","","","","","","","","","","","FALSE","",""
"Mottville","Mottville","","NY","New York","36067","Onondaga","36067","Onondaga","42.9737","-76.4424","","","199.8","point","FALSE","FALSE","FALSE","FALSE","America/New_York","4","13119","1840084638","","","","","","","","","","","","","","","","","","","","","","","","","","","","","","","","","","","","","","","","","","","","","","","","","","","","","","","","","","","","","","","","45060","Syracuse, NY","TRUE","532","Syracuse-Auburn, NY"
"Dos Rios","Dos Rios","","CA","California","06045","Mendocino","06045","Mendocino","39.7168","-123.3533","","","8.8","point","FALSE","FALSE","FALSE","FALSE","America/Los_Angeles","5","95429","1840027409","","","","","","","","","","","","","","","","","","","","","","","","","","","","","","","","","","","","","","","","","","","","","","","","","","","","","","","","","","","","","","","","46380","Ukiah, CA","FALSE","",""
"Capitol Hill","Capitol Hill","","NJ","New Jersey","34005","Burlington","34005","Burlington","40.0554","-74.9035","","","2172.2","point","FALSE","FALSE","FALSE","FALSE","America/New_York","4","08010","1840080569","","","","","","","","","","","","","","","","","","","","","","","","","","","","","","","","","","","","","","","","","","","","","","","","","","","","","","","","","","","","","","","","37980","Philadelphia-Camden-Wilmington, PA-NJ-DE-MD","TRUE","428","Philadelphia-Reading-Camden, PA-NJ-DE-MD"
"Hillview","Hillview","","AL","Alabama","01073","Jefferson","01073","Jefferson","33.5757","-86.8842","","","758.7","point","FALSE","FALSE","FALSE","FALSE","America/Chicago","4","35214","1840041949","","","","","","","","","","","","","","","","","","","","","","","","","","","","","","","","","","","","","","","","","","","","","","","","","","","","","","","","","","","","","","","","13820","Birmingham-Hoover, AL","TRUE","142","Birmingham-Hoover-Talladega, AL"
"Hugley","Hugley","","AL","Alabama","01113","Russell","01113","Russell","32.4321","-85.2461","","","7.2","point","FALSE","FALSE","FALSE","FALSE","America/Chicago","5","36804","1840041950","","","","","","","","","","","","","","","","","","","","","","","","","","","","","","","","","","","","","","","","","","","","","","","","","","","","","","","","","","","","","","","","12220","Auburn-Opelika, AL","TRUE","194","Columbus-Auburn-Opelika, GA-AL"
"Toonerville","Toonerville","","CO","Colorado","08011","Bent","08011","Bent","37.7750","-103.1641","","","0.0","point","FALSE","FALSE","FALSE","FALSE","America/Denver","5","81054","1840023233","","","","","","","","","","","","","","","","","","","","","","","","","","","","","","","","","","","","","","","","","","","","","","","","","","","","","","","","","","","","","","","","","","FALSE","",""
"Delta Center","Delta Center","","MI","Michigan","26045","Eaton","26045","Eaton","42.7264","-84.6622","","","1118.5","point","FALSE","FALSE","FALSE","FALSE","America/Detroit","4","48917","1840070668","","","","","","","","","","","","","","","","","","","","","","","","","","","","","","","","","","","","","","","","","","","","","","","","","","","","","","","","","","","","","","","","29620","Lansing-East Lansing, MI","TRUE","",""
"Herndon","Herndon","","AR","Arkansas","05031","Craighead","05031","Craighead","35.9523","-90.7137","","","26.5","point","FALSE","FALSE","FALSE","FALSE","America/Chicago","4","72401","1840039990","","","","","","","","","","","","","","","","","","","","","","","","","","","","","","","","","","","","","","","","","","","","","","","","","","","","","","","","","","","","","","","","27860","Jonesboro, AR","TRUE","308","Jonesboro-Paragould, AR"
"Dolsen","Dolsen","","LA","Louisiana","22095","St. John the Baptist","22095","St. John the Baptist","30.0591","-90.5981","","","0.0","point","FALSE","FALSE","FALSE","FALSE","America/Chicago","5","70084","1840064584","","","","","","","","","","","","","","","","","","","","","","","","","","","","","","","","","","","","","","","","","","","","","","","","","","","","","","","","","","","","","","","","35380","New Orleans-Metairie, LA","TRUE","406","New Orleans-Metairie-Hammond, LA-MS"
"Peshastin","Peshastin","","WA","Washington","53007","Chelan","53007","Chelan","47.5707","-120.6040","","","660.0","point","FALSE","FALSE","FALSE","FALSE","America/Los_Angeles","4","98847","1840037803","","","","","","","","","","","","","","","","","","","","","","","","","","","","","","","","","","","","","","","","","","","","","","","","","","","","","","","","","","","","","","","","48300","Wenatchee, WA","TRUE","",""
"Fruitland","Fruitland","","TX","Texas","48337","Montague","48337","Montague","33.5018","-97.7956","","","22.7","point","FALSE","FALSE","FALSE","FALSE","America/Chicago","4","76270","1840036986","","","","","","","","","","","","","","","","","","","","","","","","","","","","","","","","","","","","","","","","","","","","","","","","","","","","","","","","","","","","","","","","","","FALSE","",""
"Quality Hill","Quality Hill","","NY","New York","36053","Madison","36053","Madison","43.0670","-75.7749","","","137.4","point","FALSE","FALSE","FALSE","FALSE","America/New_York","4","13032","1840085045","","","","","","","","","","","","","","","","","","","","","","","","","","","","","","","","","","","","","","","","","","","","","","","","","","","","","","","","","","","","","","","","45060","Syracuse, NY","TRUE","532","Syracuse-Auburn, NY"
"Quaker Street","Quaker Street","","NY","New York","36093","Schenectady","36093","Schenectady","42.7348","-74.1862","","","221.9","point","FALSE","FALSE","FALSE","FALSE","America/New_York","4","12053","1840085044","","","","","","","","","","","","","","","","","","","","","","","","","","","","","","","","","","","","","","","","","","","","","","","","","","","","","","","","","","","","","","","","10580","Albany-Schenectady-Troy, NY","TRUE","104","Albany-Schenectady, NY"
"Quaker Springs","Quaker Springs","","NY","New York","36091","Saratoga","36091","Saratoga","43.0395","-73.6429","","","40.8","point","FALSE","FALSE","FALSE","FALSE","America/New_York","4","12871","1840085043","","","","","","","","","","","","","","","","","","","","","","","","","","","","","","","","","","","","","","","","","","","","","","","","","","","","","","","","","","","","","","","","10580","Albany-Schenectady-Troy, NY","TRUE","104","Albany-Schenectady, NY"
"Quarry Heights","Quarry Heights","","NY","New York","36119","Westchester","36119","Westchester","41.0693","-73.7510","","","230.3","point","FALSE","FALSE","FALSE","FALSE","America/New_York","4","10604","1840085046","","","","","","","","","","","","","","","","","","","","","","","","","","","","","","","","","","","","","","","","","","","","","","","","","","","","","","","","","","","","","","","","35620","New York-Newark-Jersey City, NY-NJ-PA","TRUE","408","New York-Newark, NY-NJ-CT-PA"
"Sauntry","Sauntry","","WI","Wisconsin","55031","Douglas","55031","Douglas","46.3744","-91.8227","","","19.4","point","FALSE","FALSE","FALSE","FALSE","America/Chicago","4","54873","1840124095","","","","","","","","","","","","","","","","","","","","","","","","","","","","","","","","","","","","","","","","","","","","","","","","","","","","","","","","","","","","","","","","20260","Duluth, MN-WI","TRUE","",""
"Maple Valley","Maple Valley","","NY","New York","36077","Otsego","36077","Otsego","42.6795","-74.7640","","","6.7","point","FALSE","FALSE","FALSE","FALSE","America/New_York","5","13488","1840084484","","","","","","","","","","","","","","","","","","","","","","","","","","","","","","","","","","","","","","","","","","","","","","","","","","","","","","","","","","","","","","","","36580","Oneonta, NY","FALSE","",""
"Maple Springs","Maple Springs","","NY","New York","36013","Chautauqua","36013","Chautauqua","42.1967","-79.4239","","","240.2","point","FALSE","FALSE","FALSE","FALSE","America/New_York","4","14756","1840084483","","","","","","","","","","","","","","","","","","","","","","","","","","","","","","","","","","","","","","","","","","","","","","","","","","","","","","","","","","","","","","","","27460","Jamestown-Dunkirk-Fredonia, NY","FALSE","",""
"Maple Shade","Maple Shade","","NY","New York","36091","Saratoga","36091","Saratoga","43.0187","-73.7262","","","392.6","point","FALSE","FALSE","FALSE","FALSE","America/New_York","4","12866","1840084482","","","","","","","","","","","","","","","","","","","","","","","","","","","","","","","","","","","","","","","","","","","","","","","","","","","","","","","","","","","","","","","","10580","Albany-Schenectady-Troy, NY","TRUE","104","Albany-Schenectady, NY"
"Water Valley","Water Valley","","IL","Illinois","17181","Union","17181","Union","37.5587","-89.1754","","","3.3","point","FALSE","FALSE","FALSE","FALSE","America/Chicago","5","62920","1840052630","","","","","","","","","","","","","","","","","","","","","","","","","","","","","","","","","","","","","","","","","","","","","","","","","","","","","","","","","","","","","","","","16060","Carbondale-Marion, IL","TRUE","",""
"South Granville","South Granville","","NY","New York","36115","Washington","36115","Washington","43.3715","-73.2851","","","44.6","point","FALSE","FALSE","FALSE","FALSE","America/New_York","4","12832","1840085371","","","","","","","","","","","","","","","","","","","","","","","","","","","","","","","","","","","","","","","","","","","","","","","","","","","","","","","","","","","","","","","","24020","Glens Falls, NY","TRUE","104","Albany-Schenectady, NY"
"Kingsbury Manor","Kingsbury Manor","","VA","Virginia","51015","Augusta","51015","Augusta","38.0876","-78.9425","","","322.8","point","FALSE","FALSE","FALSE","FALSE","America/New_York","4","22939","1840116616","","","","","","","","","","","","","","","","","","","","","","","","","","","","","","","","","","","","","","","","","","","","","","","","","","","","","","","","","","","","","","","","44420","Staunton, VA","TRUE","277","Harrisonburg-Staunton, VA"
"Wayland","Wayland","","IL","Illinois","17169","Schuyler","17169","Schuyler","40.2045","-90.7071","","","2.5","point","FALSE","FALSE","FALSE","FALSE","America/Chicago","5","62319","1840052634","","","","","","","","","","","","","","","","","","","","","","","","","","","","","","","","","","","","","","","","","","","","","","","","","","","","","","","","","","","","","","","","","","FALSE","",""
"Weaver","Weaver","","IL","Illinois","17023","Clark","17023","Clark","39.4181","-87.5995","","","7.7","point","FALSE","FALSE","FALSE","FALSE","America/Chicago","5","62441","1840052635","","","","","","","","","","","","","","","","","","","","","","","","","","","","","","","","","","","","","","","","","","","","","","","","","","","","","","","","","","","","","","","","45460","Terre Haute, IN","TRUE","",""
"Wendel","Wendel","","IL","Illinois","17011","Bureau","17011","Bureau","41.5331","-89.2101","","","3.6","point","FALSE","FALSE","FALSE","FALSE","America/Chicago","5","61330","1840052637","","","","","","","","","","","","","","","","","","","","","","","","","","","","","","","","","","","","","","","","","","","","","","","","","","","","","","","","","","","","","","","","36837","Ottawa, IL","FALSE","176","Chicago-Naperville, IL-IN-WI"
"West Hallock","West Hallock","","IL","Illinois","17143","Peoria","17143","Peoria","40.9209","-89.6393","","","15.9","point","FALSE","FALSE","FALSE","FALSE","America/Chicago","4","61526","1840052638","","","","","","","","","","","","","","","","","","","","","","","","","","","","","","","","","","","","","","","","","","","","","","","","","","","","","","","","","","","","","","","","37900","Peoria, IL","TRUE","",""
"West Newell","West Newell","","IL","Illinois","17183","Vermilion","17183","Vermilion","40.2034","-87.6153","","","34.0","point","FALSE","FALSE","FALSE","FALSE","America/Chicago","4","61834","1840052640","","","","","","","","","","","","","","","","","","","","","","","","","","","","","","","","","","","","","","","","","","","","","","","","","","","","","","","","","","","","","","","","19180","Danville, IL","TRUE","",""
"South Greenfield","South Greenfield","","NY","New York","36091","Saratoga","36091","Saratoga","43.0954","-73.8621","","","82.0","point","FALSE","FALSE","FALSE","FALSE","America/New_York","4","12833","1840085373","","","","","","","","","","","","","","","","","","","","","","","","","","","","","","","","","","","","","","","","","","","","","","","","","","","","","","","","","","","","","","","","10580","Albany-Schenectady-Troy, NY","TRUE","104","Albany-Schenectady, NY"
"Wolf Mountain","Wolf Mountain","","NC","North Carolina","37099","Jackson","37099","Jackson","35.2159","-82.9865","","","5.2","point","FALSE","FALSE","FALSE","FALSE","America/New_York","5","28783","1840090862","","","","","","","","","","","","","","","","","","","","","","","","","","","","","","","","","","","","","","","","","","","","","","","","","","","","","","","","","","","","","","","","19000","Cullowhee, NC","FALSE","",""
"Shupings Mill","Shupings Mill","","NC","North Carolina","37159","Rowan","37159","Rowan","35.5515","-80.4815","","","124.4","point","FALSE","FALSE","FALSE","FALSE","America/New_York","4","28146","1840088719","","","","","","","","","","","","","","","","","","","","","","","","","","","","","","","","","","","","","","","","","","","","","","","","","","","","","","","","","","","","","","","","16740","Charlotte-Concord-Gastonia, NC-SC","TRUE","172","Charlotte-Concord, NC-SC"
"Wolf Creek","Wolf Creek","","NC","North Carolina","37039","Cherokee","37039","Cherokee","35.0137","-84.3038","","","69.6","point","FALSE","FALSE","FALSE","FALSE","America/New_York","4","28906","1840090860","","","","","","","","","","","","","","","","","","","","","","","","","","","","","","","","","","","","","","","","","","","","","","","","","","","","","","","","","","","","","","","","17420","Cleveland, TN","TRUE","174","Chattanooga-Cleveland-Dalton, TN-GA"
"Wolf Ford","Wolf Ford","","NC","North Carolina","37175","Transylvania","37175","Transylvania","35.3432","-82.7298","","","0.3","point","FALSE","FALSE","FALSE","FALSE","America/New_York","5","28768","1840090861","","","","","","","","","","","","","","","","","","","","","","","","","","","","","","","","","","","","","","","","","","","","","","","","","","","","","","","","","","","","","","","","14820","Brevard, NC","FALSE","120","Asheville-Marion-Brevard, NC"
"McChesneytown","McChesneytown","","PA","Pennsylvania","42129","Westmoreland","42129","Westmoreland","40.3148","-79.3586","","","699.8","point","FALSE","FALSE","FALSE","FALSE","America/New_York","4","15650","1840100340","","","","","","","","","","","","","","","","","","","","","","","","","","","","","","","","","","","","","","","","","","","","","","","","","","","","","","","","","","","","","","","","38300","Pittsburgh, PA","TRUE","430","Pittsburgh-New Castle-Weirton, PA-OH-WV"
"Theilers","Theilers","","MI","Michigan","26053","Gogebic","26053","Gogebic","46.4636","-89.6988","","","0.0","point","FALSE","FALSE","FALSE","FALSE","America/Menominee","5","49947","1840127926","","","","","","","","","","","","","","","","","","","","","","","","","","","","","","","","","","","","","","","","","","","","","","","","","","","","","","","","","","","","","","","","","","FALSE","",""
"The Jackpines","The Jackpines","","MI","Michigan","26069","Iosco","26069","Iosco","44.4536","-83.7980","","","103.5","point","FALSE","FALSE","FALSE","FALSE","America/Detroit","4","48739","1840127925","","","","","","","","","","","","","","","","","","","","","","","","","","","","","","","","","","","","","","","","","","","","","","","","","","","","","","","","","","","","","","","","","","FALSE","",""
"Thomaston","Thomaston","","MI","Michigan","26053","Gogebic","26053","Gogebic","46.5163","-89.9274","","","16.4","point","FALSE","FALSE","FALSE","FALSE","America/Menominee","4","49968","1840031739","","","","","","","","","","","","","","","","","","","","","","","","","","","","","","","","","","","","","","","","","","","","","","","","","","","","","","","","","","","","","","","","","","FALSE","",""
"Meckesville","Meckesville","","PA","Pennsylvania","42025","Carbon","42025","Carbon","40.9998","-75.5519","","","68.5","point","FALSE","FALSE","FALSE","FALSE","America/New_York","4","18210","1840100341","","","","","","","","","","","","","","","","","","","","","","","","","","","","","","","","","","","","","","","","","","","","","","","","","","","","","","","","","","","","","","","","20700","East Stroudsburg, PA","TRUE","408","New York-Newark, NY-NJ-CT-PA"
"Cox City","Cox City","","OK","Oklahoma","40051","Grady","40051","Grady","34.7254","-97.7317","","","3.6","point","FALSE","FALSE","FALSE","FALSE","America/Chicago","5","73082","1840034435","","","","","","","","","","","","","","","","","","","","","","","","","","","","","","","","","","","","","","","","","","","","","","","","","","","","","","","","","","","","","","","","36420","Oklahoma City, OK","TRUE","416","Oklahoma City-Shawnee, OK"
"Filley","Filley","","MO","Missouri","29039","Cedar","29039","Cedar","37.7589","-93.9491","","","8.8","point","FALSE","FALSE","FALSE","FALSE","America/Chicago","5","65785","1840075715","","","","","","","","","","","","","","","","","","","","","","","","","","","","","","","","","","","","","","","","","","","","","","","","","","","","","","","","","","","","","","","","","","FALSE","",""
"Campia","Campia","","WI","Wisconsin","55005","Barron","55005","Barron","45.5375","-91.6657","","","19.9","point","FALSE","FALSE","FALSE","FALSE","America/Chicago","4","54868","1840037921","","","","","","","","","","","","","","","","","","","","","","","","","","","","","","","","","","","","","","","","","","","","","","","","","","","","","","","","","","","","","","","","","","FALSE","",""
"Toltec","Toltec","","NM","New Mexico","35006","Cibola","35006","Cibola","35.2145","-107.9103","","","75.6","point","FALSE","FALSE","FALSE","FALSE","America/Denver","4","87021","1840082685","","","","","","","","","","","","","","","","","","","","","","","","","","","","","","","","","","","","","","","","","","","","","","","","","","","","","","","","","","","","","","","","24380","Grants, NM","FALSE","",""
"Tucker","Tucker","","TX","Texas","48001","Anderson","48001","Anderson","31.6735","-95.7480","","","41.4","point","FALSE","FALSE","FALSE","FALSE","America/Chicago","4","75801","1840036597","","","","","","","","","","","","","","","","","","","","","","","","","","","","","","","","","","","","","","","","","","","","","","","","","","","","","","","","","","","","","","","","37300","Palestine, TX","FALSE","",""
"Lanes Mills","Lanes Mills","","PA","Pennsylvania","42065","Jefferson","42065","Jefferson","41.2201","-78.7759","","","57.3","point","FALSE","FALSE","FALSE","FALSE","America/New_York","4","15824","1840100041","","","","","","","","","","","","","","","","","","","","","","","","","","","","","","","","","","","","","","","","","","","","","","","","","","","","","","","","","","","","","","","","","","FALSE","",""
"Langdondale","Langdondale","","PA","Pennsylvania","42009","Bedford","42009","Bedford","40.1304","-78.2539","","","67.1","point","FALSE","FALSE","FALSE","FALSE","America/New_York","4","16650","1840100042","","","","","","","","","","","","","","","","","","","","","","","","","","","","","","","","","","","","","","","","","","","","","","","","","","","","","","","","","","","","","","","","26500","Huntingdon, PA","FALSE","107","Altoona-Huntingdon, PA"
"Upper Hill","Upper Hill","","MA","Massachusetts","25013","Hampden","25013","Hampden","42.1098","-72.5537","","","5473.0","point","FALSE","FALSE","FALSE","FALSE","America/New_York","4","01109","1840068868","","","","","","","","","","","","","","","","","","","","","","","","","","","","","","","","","","","","","","","","","","","","","","","","","","","","","","","","","","","","","","","","44140","Springfield, MA","TRUE","",""
"Joppa","Joppa","","OH","Ohio","39105","Meigs","39105","Meigs","39.1529","-81.7985","","","21.8","point","FALSE","FALSE","FALSE","FALSE","America/New_York","4","45772","1840092288","","","","","","","","","","","","","","","","","","","","","","","","","","","","","","","","","","","","","","","","","","","","","","","","","","","","","","","","","","","","","","","","","","FALSE","",""
"Stanley","Stanley","","NY","New York","36069","Ontario","36069","Ontario","42.8251","-77.0958","","","58.1","point","FALSE","FALSE","FALSE","FALSE","America/New_York","4","14561","1840085449","","","","","","","","","","","","","","","","","","","","","","","","","","","","","","","","","","","","","","","","","","","","","","","","","","","","","","","","","","","","","","","","40380","Rochester, NY","TRUE","464","Rochester-Batavia-Seneca Falls, NY"
"Stanley Manor","Stanley Manor","","NY","New York","36067","Onondaga","36067","Onondaga","43.0398","-76.2572","","","1060.5","point","FALSE","FALSE","FALSE","FALSE","America/New_York","4","13031","1840085450","","","","","","","","","","","","","","","","","","","","","","","","","","","","","","","","","","","","","","","","","","","","","","","","","","","","","","","","","","","","","","","","45060","Syracuse, NY","TRUE","532","Syracuse-Auburn, NY"
"Lake Garfield","Lake Garfield","","FL","Florida","12105","Polk","12105","Polk","27.8906","-81.7612","","","59.3","point","FALSE","FALSE","FALSE","FALSE","America/New_York","4","33830","1840046813","","","","","","","","","","","","","","","","","","","","","","","","","","","","","","","","","","","","","","","","","","","","","","","","","","","","","","","","","","","","","","","","29460","Lakeland-Winter Haven, FL","TRUE","422","Orlando-Lakeland-Deltona, FL"
"Terrytown","Terrytown","","AR","Arkansas","05119","Pulaski","05119","Pulaski","34.6537","-92.4274","","","1021.0","point","FALSE","FALSE","FALSE","FALSE","America/Chicago","4","72210","1840040647","","","","","","","","","","","","","","","","","","","","","","","","","","","","","","","","","","","","","","","","","","","","","","","","","","","","","","","","","","","","","","","","30780","Little Rock-North Little Rock-Conway, AR","TRUE","340","Little Rock-North Little Rock, AR"
"Three Creeks","Three Creeks","","AR","Arkansas","05139","Union","05139","Union","33.0946","-92.8538","","","11.1","point","FALSE","FALSE","FALSE","FALSE","America/Chicago","4","71749","1840040648","","","","","","","","","","","","","","","","","","","","","","","","","","","","","","","","","","","","","","","","","","","","","","","","","","","","","","","","","","","","","","","","20980","El Dorado, AR","FALSE","",""
"Pungo","Pungo","","NC","North Carolina","37013","Beaufort","37013","Beaufort","35.6368","-76.6119","","","16.1","point","FALSE","FALSE","FALSE","FALSE","America/New_York","4","27860","1840090947","","","","","","","","","","","","","","","","","","","","","","","","","","","","","","","","","","","","","","","","","","","","","","","","","","","","","","","","","","","","","","","","47820","Washington, NC","FALSE","272","Greenville-Kinston-Washington, NC"
"Gates","Gates","","NC","North Carolina","37073","Gates","37073","Gates","36.5035","-76.7691","","","88.7","point","FALSE","FALSE","FALSE","FALSE","America/New_York","4","27937","1840032869","","","","","","","","","","","","","","","","","","","","","","","","","","","","","","","","","","","","","","","","","","","","","","","","","","","","","","","","","","","","","","","","47260","Virginia Beach-Norfolk-Newport News, VA-NC","TRUE","545","Virginia Beach-Norfolk, VA-NC"
"Alpine Village","Alpine Village","","VT","Vermont","50023","Washington","50023","Washington","44.0687","-72.8343","","","78.5","point","FALSE","FALSE","FALSE","FALSE","America/New_York","4","05674","1840115175","","","","","","","","","","","","","","","","","","","","","","","","","","","","","","","","","","","","","","","","","","","","","","","","","","","","","","","","","","","","","","","","12740","Barre, VT","FALSE","162","Burlington-South Burlington-Barre, VT"
"Rocky Cross","Rocky Cross","","NC","North Carolina","37127","Nash","37127","Nash","35.8632","-78.2219","","","53.3","point","FALSE","FALSE","FALSE","FALSE","America/New_York","4","27557","1840088670","","","","","","","","","","","","","","","","","","","","","","","","","","","","","","","","","","","","","","","","","","","","","","","","","","","","","","","","","","","","","","","","40580","Rocky Mount, NC","TRUE","468","Rocky Mount-Wilson-Roanoke Rapids, NC"
"Bethel Village","Bethel Village","","IN","Indiana","18005","Bartholomew","18005","Bartholomew","39.1520","-85.9247","","","309.9","point","FALSE","FALSE","FALSE","FALSE","America/Indiana/Indianapolis","4","47201","1840054306","","","","","","","","","","","","","","","","","","","","","","","","","","","","","","","","","","","","","","","","","","","","","","","","","","","","","","","","","","","","","","","","18020","Columbus, IN","TRUE","294","Indianapolis-Carmel-Muncie, IN"
"Garretts Bluff","Garretts Bluff","","TX","Texas","48277","Lamar","48277","Lamar","33.8715","-95.7208","","","2.0","point","FALSE","FALSE","FALSE","FALSE","America/Chicago","5","75411","1840112695","","","","","","","","","","","","","","","","","","","","","","","","","","","","","","","","","","","","","","","","","","","","","","","","","","","","","","","","","","","","","","","","37580","Paris, TX","FALSE","",""
"Adobe","Adobe","","AZ","Arizona","04013","Maricopa","04013","Maricopa","33.6892","-112.1227","","","1994.3","point","FALSE","FALSE","FALSE","FALSE","America/Phoenix","4","85027","1840013360","","","","","","","","","","","","","","","","","","","","","","","","","","","","","","","","","","","","","","","","","","","","","","","","","","","","","","","","","","","","","","","","38060","Phoenix-Mesa-Chandler, AZ","TRUE","429","Phoenix-Mesa, AZ"
"Forest Manor","Forest Manor","","MD","Maryland","24033","Prince George's","24033","Prince George's","38.8396","-76.8830","","","1372.8","point","FALSE","FALSE","FALSE","FALSE","America/New_York","4","20747","1840068449","","","","","","","","","","","","","","","","","","","","","","","","","","","","","","","","","","","","","","","","","","","","","","","","","","","","","","","","","","","","","","","","47900","Washington-Arlington-Alexandria, DC-VA-MD-WV","TRUE","548","Washington-Baltimore-Arlington, DC-MD-VA-WV-PA"
"North Leeds","North Leeds","","WI","Wisconsin","55021","Columbia","55021","Columbia","43.3319","-89.3254","","","10.7","point","FALSE","FALSE","FALSE","FALSE","America/Chicago","4","53911","1840123949","","","","","","","","","","","","","","","","","","","","","","","","","","","","","","","","","","","","","","","","","","","","","","","","","","","","","","","","","","","","","","","","31540","Madison, WI","TRUE","357","Madison-Janesville-Beloit, WI"
